name,latitude,longitude,slope_degrees
ASHTA 2,42.01168611,19.55194167,1.4801355600357056
Banja / Banjë,40.96,20.068,8.528314590454102
Bele 1/2,42.06903611,20.46006667,7.226442813873291
Bishnica 1/2,39.9169,20.1374,12.60841941833496
Bistrica 1,39.9116,20.1047,3.6164917945861816
Cernaleve 1/2,42.02941667,20.55555278,17.46257781982422
Fangu,41.705833,19.770278,5.334288120269775
Fierza,42.2514,20.0431,14.879828453063965
Ftere 1,40.11119167,19.87758889,14.359068870544434
Holta,40.92728056,20.22091667,18.999589920043945
Koman,42.1033,19.8224,13.712347030639648
Lanabregas,41.3428,19.8964,11.753612518310549
Langarica 1/2/3,40.3098,20.47698056,11.841280937194824
Lenie,40.76601389,20.39604444,8.795196533203125
Lura 1/3,41.81460833,20.21796944,6.724792957305908
Moglicë,40.6939862,20.439501,16.577552795410156
Oresheke,42.02874167,20.53076389,21.060365676879883
Peshqesh,41.705833,19.770278,5.334288120269775
Pobreg,42.085925,19.79325278,13.13138484954834
Prelle,41.69380833,20.0131694,8.744125366210938
Qarrishta 1,41.21956111,20.30383333,6.898138999938965
Rajan 1/2,40.26653611,20.52168611,7.892684936523437
Shkalle,41.579025,20.12165833,11.281977653503418
Shkopet,41.6796,19.8305,16.82013511657715
Sllabinje,40.96899722,20.51337222,11.65379810333252
Stravaj 2,41.0057,20.425,11.89987850189209
Topojan 1/2,41.98756111,20.52793889,15.924665451049805
Ulez,41.6796,19.8936,9.373855590820312
Vau i Dijes,42.0137,19.6359,5.727286338806152
Vlushe,40.506225,20.310079,11.824057579040527
Argel,40.3786,44.6069,11.832664489746094
Arzni,40.2968,44.5875,6.002432346343994
Harzdan,40.5078,44.7606,7.349320888519287
Qanaqer HPP,40.2226,44.5134,10.518877983093262
Sevan,40.5522,44.9513,3.359621047973633
Shamb,39.4743,46.1306,11.759124755859377
Spandaryan,39.6494,45.85,9.725135803222656
Tatev,39.3956,46.2578,14.345881462097168
Yerevan-1 HPP,40.191,44.484,7.289708614349365
Yerevan-3 HPP,40.1642,44.5009,2.867784023284912
Abwinden-Asten,48.248,14.4305,2.6915574073791504
Altenmarkt,47.71944444,14.67222222,10.282480239868164
Altenwörth Altenwoerth-KW - Altenwoerth Hydroelectric Power Plant Austria,48.374728,15.855343,2.819120407104492
Annabrücke Annabruecke Hydroelectric Power Plant Austria - Annabruecke Hydroelectric Power Plant Austria,46.561407,14.479829,7.133504867553711
Arnstein,47.0167,15.1667,12.682353019714355
Aschach,48.3853,14.023,5.758068561553955
Bischofshofen,47.407,13.2205,5.091367244720459
Bodendorf mur,47.107688,14.065071,12.59714698791504
Bodendorf paal,47.107717,14.065156,12.724569320678713
Braunau-Simbach,48.244,13.006,1.7800387144088743
Brennerwerk-M1,47.126999,11.453,8.409161567687988
Bärenwerk,47.2166667,12.8166667,23.834152221679688
Böckstein,47.79940564,13.04399014,8.978297233581543
Bösdornau Boesdornau-KW - Boesdornau Hydroelectric Power Plant Austria,47.15192,11.833298,16.107385635375977
Debant_1-M1,48.257999,16.389999,2.9473373889923096
Dießbach,47.5166667,12.8333333,17.652101516723633
Dionysen,47.41,15.214,9.08621883392334
Dorferbach-KW,47.02,12.362,16.277822494506836
Edling Edling-KW - Edling Hydroelectric Power Plant Austria,46.628959,14.701371,7.32276725769043
Ering-Frauenstein,48.29207045,13.1589383,2.9733221530914307
Feistritz-Ludmannsdorf,46.5347,14.1712,4.667764186859131
Feldkirchen,46.8638,13.3355,5.792693138122559
Feldsee Kraftwerk Feldsee - Feldsee Pumped Storage Power Plant Austria,46.9985746,13.0418733,15.136459350585938
Ferlach Maria Rain,46.5462,14.2985,6.355966567993164
Fisching,47.1743,14.723143,3.8575539588928223
Friesach,47.186513,15.336014,6.565546035766602
Funsingau,47.2354,12.0583,11.409062385559082
Gabersdorf,46.7772,15.5842,2.0875437259674072
Gaming,48.1766,16.4813,2.697132110595703
Gamp,47.6833333,13.1,2.38608193397522
"Garsten st, ulrich",48.018488,14.411714,3.047502040863037
Gemeinschaftskraftwerk inn,47.062954,10.662868,11.18480110168457
Gerlos,47.2342,11.8997,10.689959526062012
Gmuend-Speicher,47.932999,13.797,6.459244728088379
Gralla,46.828285,15.566222,2.2148356437683105
Gratkorn,47.1333,15.35,2.822547197341919
Graz puntigam,47.039749,15.442537,2.262601852416992
Greifenstein,48.3553,16.2424,3.4879379272460938
Gries,47.287673,12.885052,7.292832851409912
Großraming,47.892954,14.512341,14.644594192504885
Gunggl,47.09048,11.792702,22.227169036865234
Gössendorf,46.997841,15.467519,3.498769521713257
Heinfels-M1,46.748001,12.434,7.526811122894287
Hieflau,47.6,14.7333,15.606390953063965
Hierzman-Speicher,47.016998,15.125,8.563517570495605
Hintermuhr,47.79940564,13.04399014,8.978297233581543
Häusling Haeusling-KW - Haeusling Pumped Storage Power Plant Austria,47.146432,11.967219,23.334659576416016
Imst,47.212246,10.721519,13.343668937683104
Jochenstein,48.5184,13.7076,9.78924560546875
KW Amlach,46.8142,12.7618,1.558419108390808
KW Jenbach,47.3932,11.7886,5.752469539642334
KW Kaunertal,47.0678,10.6652,12.04533863067627
KW Kühtai,47.2078,11.0057,9.777299880981444
KW Silz,47.2696,10.9678,9.955437660217283
Kalsdorf,46.944097,15.50363,3.169828653335572
Kalserbach-M1,46.923,12.601,12.46037483215332
Kaprun Limberg II,47.1985,12.7223,19.62413215637207
Kaprun Oberstufe,47.1968,12.7192,14.948166847229004
Kaprun main stage,47.2591,12.7389,14.241168975830078
Kellerberg,46.67,13.6886,15.832681655883787
Kirchbichl-M1,47.515999,12.088,3.792041063308716
Klaus,47.8314,14.1572,12.276001930236816
Kopswerk I - Kops I Hydroelectric Power Plant Austria,46.976121,10.05145,23.391584396362305
Kopswerk II,46.975,10.043,17.67131233215332
Koralpe Koralpe Pumped Storage Power Plant Austria - Koralpe Pumped Storage Power Plant Austria,46.6407766,14.9488018,6.490983963012695
Kraftwerk Alberschwende,47.470464,9.862094,13.075026512145996
Kraftwerk Kamering,46.738998,13.594,6.22207498550415
Kraftwerk Oschenik,46.987999,13.106,25.49658393859864
Kraftwerk Schuett,46.570999,13.722,4.456806182861328
Kraftwerk Woella,46.875,13.138,21.311662673950195
Kraftwerk Wurten,46.987999,13.106,25.49658393859864
Kraftwerk Zirknitz,47.009998,13.01,17.398601531982422
Kraftwerk außerfragant Kraftwerk Ausserfragant,46.9380556,13.1097222,13.675649642944336
Kreuzbergmaut,47.4412,13.2108,7.368647575378418
Kreuzeck days storage,46.8727,13.3117,6.147454738616943
Krippau,47.703511,14.689298,13.408504486083984
Landl,47.651131,14.750286,9.357950210571287
Langkampfen-M1,47.560001,12.139,10.269889831542969
Latschau Latschau Hydroelectric Power Plant Austria - Latschau Hydroelectric Power Plant Austria,47.0739,9.8749,8.29063892364502
Laufnitzdorf,47.3,15.3167,16.099515914916992
Lavamünd Lavamuend-KW - Lavamuend Hydroelectric Power Plant Austria,46.643429,14.937028,7.058557987213135
Lebring,46.8522,15.5383,2.919541597366333
Leoben,47.3833,15.1,3.939719438552856
Losenstein,47.9243,14.4367,8.144271850585938
Lünerseewerk,47.074,9.874,8.237034797668457
Malta Secondary school,47.0659,13.3539,16.387638092041016
Malta main stage,47.0659,13.3539,16.387638092041016
Malta unterstufe Malta-Unterstufe-KW - Malta Unterstufe (Moellbruecke) Hydroelectric Power Plant Austria,46.8332,13.360071,11.058209419250488
Mandling,47.4,13.5667,12.577189445495604
Mayrhofen,47.1581,11.8501,10.112564086914062
Melk,48.2232,15.3042,2.449924230575561
Mellach run power plant,46.910999,15.486,2.5753018856048584
Mühlrading,48.131686,14.473996,1.6261669397354126
Nassfeld,47.05,13.05,12.728525161743164
Neuötting,48.2497963,12.69110217,2.8721847534179688
Niklai,46.8167,13.3167,21.62367820739746
Nussdorf near Vienna,48.259257,16.369185,2.968246459960937
Oberaudorf Ebbs,47.6413,12.1989,1.8759796619415283
Obervermuntwerk,46.9271,10.0539,9.623638153076172
Obervermuntwerk II,46.936111,10.0625,15.698040962219238
Obervogau,46.745776,15.571428,5.203975677490234
Oschenik innerfragant Innerfragant Pumped Storage Power Plant Austria - Innerfragant Pumped Storage Power Plant Austria,47.1374819,12.3273397,20.60371780395508
Ottensheim-Wilhering,48.3166,14.1512,3.515471935272217
Passau-Ingling,48.5536,13.4371,2.5121283531188965
Paternion,46.7209,13.6453,3.258413314819336
Peggau,47.2,15.35,5.86426305770874
Pernegg,47.3598,15.3424,5.151631832122803
Pichlern,48.022415,14.322989,3.917797565460205
Pöls,47.217744,14.599075,3.892736673355103
Rabenstein,47.251148,15.31034,8.743682861328125
Reisseck Reisseck-Jahresspeicher-KW - Kolbnitz (Reisseck/Kreuzeck) Hydroelectric Power Plant Austria,46.89411184,13.34315198,18.33004570007324
Reißeck-Tagesspeicher-KW,46.87297136,13.31180113,5.599057674407959
Rellswerk,47.0531826,9.7529724,0.4841360449790954
Remsach,47.1333333,13.1333333,5.430818557739258
Rifawerk Rifa Pumped Storage Power Plant Austria - Rifa Pumped Storage Power Plant Austria,46.9782553,10.0383768,14.777201652526855
Rodundwerk I,47.085,9.8813,12.09156322479248
Rodundwerk II,47.0847,9.8744,12.511448860168455
Rosegg-St. James,46.5696,14.0268,3.2143352031707764
Rosenau,47.992886,14.376871,5.306761264801025
Rott,47.79940564,13.04399014,8.978297233581543
Roßhag Rosshag-KW - Rosshag Pumped Storage Power Plant Austria,47.086876,11.774061,20.195554733276367
Salza,47.491345,13.956943,15.577945709228516
Schonau,47.775426,14.650605,17.477275848388672
Schwabeck,46.658,14.8726,8.451847076416016
Schwarzach,47.3152,13.1389,7.729456901550293
Schwarzach-KW,46.929001,12.545,21.08866310119629
Schärding neuhaus,48.4355526,13.44094485,1.7046791315078735
Sidan-KW,47.348999,11.885,14.603906631469728
Soelk-KW,47.433998,13.949,9.336759567260742
Spielfeld,46.716449,15.62127,5.251881122589111
St. Georgen,47.104453,14.087593,8.931108474731445
St. Johann,47.3386,13.1974,6.307494640350342
St. Martin,46.987392,15.091178,12.457152366638184
St. Pantaleon,48.224936,14.53116,2.1303579807281494
St. Veit,47.3214,13.1744,6.939463138580322
Staning,48.098607,14.468763,2.905046463012696
Strubklamm,47.79940564,13.04399014,8.978297233581543
Ternberg,47.9333,14.35,11.205251693725586
Triebenbach,47.5,14.4667,1.1763787269592283
Urreiting,47.3749,13.2101,5.138664245605469
Vermuntwerk,46.9684,10.0599,17.116016387939453
Vienna-Freudenau,48.1766,16.0,7.703266620635986
Villach,46.6329,13.8294,5.631968021392822
Wald,47.9044444,13.0263889,5.328701019287109
Walgauwerk,47.192,9.6815,9.464190483093262
Wallnerau Salzach stage,47.316,13.141,7.676215648651123
Wallnerau underwater stage,47.31554,13.140946,7.733253002166748
Wallsee-Mitterkirchen,48.1666,14.6953,2.333025455474853
Weinzödl,47.108388,15.392094,8.247288703918457
Werfen-Pfarrwerfen,47.4698,13.1945,7.550371646881103
Weyer,47.84903023,14.63882788,16.180574417114258
Wiestal,47.79940564,13.04399014,8.978297233581543
Ybbs-Persenbeug,48.1892,15.0682,4.495587348937988
Zederhaus,47.15,13.5,18.846433639526367
Mingechevir,40.79,47.0287,3.893557071685791
Shamkir,40.9487,46.168,3.915127754211426
Varvara,40.6837,47.0926,1.0032833814620972
Yenikend,40.9193,46.2829,1.039348840713501
Beverce robertville Beverce (Robertville) Hydroelectric Power Project Belgium - Beverce (Robertville) Hydroelectric Power Project Belgium,50.4387,6.0386,9.28524684906006
COO,50.3849,5.8618,10.558272361755373
HEID-DE-GOREUX 1,50.426,5.7328,11.332154273986816
HU AMPSIN-NEUVILLE,50.5335,5.2962,3.4162960052490234
HU ANDENNE,50.4928,5.07,5.710914611816406
HU GRAND-MALADES,50.4665,4.8992,5.714461803436279
HU IVOZ-RAMET,50.5922,5.4613,3.133319139480591
HU LIXHE,50.7517,5.6863,1.8734378814697263
HU MONSIN,50.6517,5.6308,3.135159969329834
PLATE TAILLE T,50.1884,4.3861,3.20153546333313
Bocac Hydroelectric Power Plant Bosnia and Herzegovina,44.5075,17.1618,13.569040298461914
Capljina Pumped Storage Power Plant Bosnia and Herzegovina,43.0133,17.8041,8.30815601348877
Grabovica Hydroelectric Power Plant Bosnia and Herzegovina,43.5872,17.7189,15.883514404296877
Jablanica Hydroelectric Power Plant Bosnia and Herzegovina,43.6924,17.7325,15.763534545898438
Jajce I Hidroelektrana Bosnia and Herzegovina,44.3774,17.2816,20.52363586425781
Jajce II Hidroelektrana Bosnia and Herzegovin,44.4279,17.2404,22.626916885375977
Krupa Hydroelectric Power Plant Bosnia and Herzegovina,44.5624,17.135,16.91752815246582
Mostar Hydroelectric Power Plant Bosnia and Herzegovina,43.3776,17.8449,5.684672355651856
Mostarsko Blato Hydroelectric Power Plant Bosnia and Herzegovina,43.2989,17.794,9.261730194091797
Pec Mlini Hydroelectric Power Plant Bosnia and Herzegovina,43.3375,17.3261,17.471481323242188
Rama Hydroelectric Power Plant Bosnia and Herzegovina,43.747,17.6758,18.65058135986328
Salakovac Hydroelectric Power Plant Bosnia and Herzegovina,43.4478,17.8369,11.108041763305664
Trebinje I Hydroelectric Power Plant Bosnia and Herzegovina,42.7338,18.4971,13.002923011779783
Trebinje II Hydroelectric Power Plant Bosnia and Herzegovina,42.7066,18.3805,7.812918663024902
Visegrad Hydroelectric Power Plant Bosnia and Herzegovina,43.7603,19.2891,12.195984840393066
Aleko Aleko Hydroelectric Power Plant Bulgaria - Aleko Hydroelectric Power Plant Bulgaria,42.1194,24.289,5.470590114593506
Alexander Stambolyski Hydro Power Site,43.1213,25.171,4.235611915588379
Barzia HPP,43.19,23.167,9.317814826965332
Batak Batak Hydroelectric Power Plant Bulgaria - Batak Hydroelectric Power Plant Bulgaria,41.91922,24.19305,12.031545639038086
Beli Iskar + Mala Tsarkva + Simeonovo HPP,42.1373,23.5691,8.280326843261719
Devin Devin Hydroelectric Power Plant Bulgaria - Devin Hydroelectric Power Plant Bulgaria,41.72052,24.42502,15.049107551574709
HPP Tsankov kamak,41.83225,24.42183,15.301129341125488
IVAILOVGRAD,41.5839,26.1075,11.765144348144531
KARDZHALI,41.6334,25.3381,12.18004035949707
Kalin + Kamenitsa + Pastra + Rila HPP,42.07,23.13,8.567017555236816
Klisoura HPP,43.16859,23.15498,10.434196472167969
Kokalyane HPP,42.58398,23.42819,9.431028366088867
Koprinka HPP (Kaplan),42.6125,25.3198,3.040769338607788
Krichim + Vacha I + Vacha II Hydro Power Plant,42.02719,24.47085,18.495874404907227
Lilyanovo,41.62674,23.33449,15.948284149169922
MOMINA KLISU,42.232,23.9494,10.827214241027832
Orphey Orfeus bulgeria HPP_ORFEUS_PUMP - Orfeus Pumped Storage Hydroelectric Power Plant Bulgeria,41.94027778,24.44666667,16.122262954711914
PESHTERA,42.0132,24.2574,17.759395599365234
PSBELMEKEN,42.1996,23.8586,18.89181137084961
PSCHAIRA GEN,42.1603,23.8612,13.37716579437256
Pasarel Hydro Power Station,42.5441,23.4861,15.59758758544922
Petrohan HPP,43.12,23.12,10.764078140258787
Pirin HPP,41.5745,23.5626,18.1127872467041
Popina Laka,41.65627,23.3754,18.010990142822266
SESTRIMO,42.2083,23.9158,17.85397720336914
Sandanski I,41.58536,23.2905,11.074213981628418
Spanchevo HPP,41.56265,23.56559,17.69378662109375
Stara Zagora HPP,42.4452,25.6364,2.3926010131835938
Studen kladenets Studen Kladenets Hydroelectric Power Plant Bulgaria - Studen Kladenets Hydroelectric Power Plant Bulgaria,41.61227,25.64052,7.562021732330322
Teshel Teshel Hydroelectric Power Plant Bulgaria - Teshel Hydroelectric Power Plant Bulgaria,41.6428,24.153,11.343182563781738
Cakovec Hydroelectric Power Plant Croatia Croatia,46.3113,16.4945,1.922548770904541
Djale Hydroelectric Power Plant Croatia,43.5745,16.7115,7.14010763168335
Dubrava Hydroelectric Power Plant Croatia Croatia,46.3205,16.7489,1.8985015153884888
Dubrovnik Hydroelectric Power Plant Bosnia and Herzegovina,42.6037,18.2357,16.15730094909668
Fužine,45.3049852,14.7148369,6.42353105545044
Gojak Hydroelectric Power Plant Croatia Croatia,45.2989,15.2633,7.889244556427002
Golubic Hydroelectric Power Plant Croatia Croatia,44.09,16.2204,3.953814744949341
HE Rijeka,45.33499908,14.45199966,12.345162391662598
Hidroelektrana Velebit / Velebit pump,44.2007328,15.6811168,9.088175773620604
Jaruga Hydroelectric Power Plant Croatia Croatia,43.805,15.9626,11.737503051757812
Kraljevac Hydroelectric Power Plant Croatia,43.4307,16.8849,13.5396089553833
Lesce Hydroelectric Power Plant Croatia Croatia,45.3485,15.3452,7.463326454162598
Maljacka Hydroelectric Power Plant Croatia Croatia,44.0019,16.0192,12.980761528015137
Orlovac Hydroelectric Power Plant Croatia,43.6737,16.784,7.814127445220947
Ozalj Hydroelectric Power Plant Croatia Croatia,45.6143,15.4778,4.519171237945557
Peruca Hydroelectric Power Plant Croatia,43.7951,16.5968,5.854912281036377
Senj - Senj Hydroelectric Power System Croatia Croatia,45.009998,14.893,
Senj Hydroelectric Power System Croatia Croatia,44.9429,14.9276,10.369553565979004
Sklope Hydroelectric Power Plant Croatia Croatia,44.6895,15.2706,
Varazdin Hydroelectric Power Plant Croatia Croatia,46.3479,16.2684,1.335168957710266
Vinodol Hydroelectric Power System Croatia Croatia,45.2286,14.6736,9.166804313659668
Zakucac Hydroelectric Power Plant Croatia,43.4581,16.7027,15.612162590026855
?t?chovice I,49.8465,14.4219,11.6931734085083
?t?chovice II,49.8465,14.4219,11.6931734085083
Dale?ice,49.1245,16.1242,8.410001754760742
Dlouhé Strán? I,50.0854,17.1794,12.949198722839355
Hnevkovice,49.180417,14.447083,5.371875286102295
Kamyk republic Kamyk Hydroelectric Power Plant Czech Republic - Kamyk Hydroelectric Power Plant Czech Republic,49.633,14.2468,6.394604206085205
Lipno I,48.6333,14.2375,7.465055465698242
Nechranice,50.36625,13.412917,0.1468637883663177
Orlík,49.6066,14.1816,7.776265621185303
Slapy,49.82354,14.434501,10.956490516662598
Slezska Harta,49.89125,17.579583,3.188572406768799
Strekov republic Strekov Hydroelectric Power Plant Czech Republic - Strekov Hydroelectric Power Plant Czech Republic,50.6386,14.0478,5.03486967086792
Vir I,49.56625,16.30875,7.5553154945373535
Vrane republic Vrane Hydroelectric Power Plant Czech Republic - Vrane Hydroelectric Power Plant Czech Republic,49.9381,14.3749,8.340705871582031
Vranov,48.907917,15.817083,3.268213987350464
Ahvenkoski,60.5,26.5,2.397224187850952
Aittokoski,64.8364584,28.85048,2.553752899169922
Alakoski,62.55,29.25,1.2669116258621216
Anjalankoski,60.69833333,26.81611111,2.9335386753082275
Atro,63.3725,27.98833333,2.115046977996826
Finlayson ve,61.5025,23.75944444,3.944717168807984
Haapakoski,65.3333,25.2833,2.311016082763672
Hamari,64.07555556,24.57944444,2.358971118927002
Hietamankoski,62.59944444,25.575,3.1278975009918213
Hilmonkoski,63.06333333,25.33722222,2.87730073928833
Hinkua,63.70194444,25.35222222,0.4684890210628509
Hirvikoski,62.80944444,23.03583333,2.452484369277954
Imatra Imatra - Imatra Hydroelectric Power Plant Finland,61.166797,28.774695,4.508160591125488
Inkeroinen ve,60.71027778,26.81361111,3.0236544609069824
Isohaara,65.797083,24.549583,1.0353282690048218
Juankoski,63.0675,28.33861111,3.4457507133483887
Jumisko,66.3333,28.15,0.2303218692541122
Juotas,63.5,22.5333,0.8013741374015808
Jylhama,64.57875,26.76625,1.6411851644515991
KAVO Koivukoski III,64.22333333,27.78444444,1.7506483793258667
Kaaranneskoski,66.647,24.4266,2.083955764770508
Kaihua,66.35,26.85,2.1544651985168457
Kaitfors,63.694,23.4009,2.729318380355835
Kaltimo,62.807917,30.179583,1.1853537559509275
Karjalankoski,63.04472222,28.30416667,2.7576277256011963
Katerman vesivoimalaitos,64.09611111,28.97388889,3.2071750164031982
Kattilakoski,63.47,23.30638889,2.394468069076538
Keltti hydropower plant,60.87361111,26.61444444,4.530270099639893
Kelukoski,67.45555556,26.59833333,1.1294931173324585
Kierikki,65.35944444,25.91,2.708349704742432
Killinkoski,62.4,23.8667,0.8412085771560669
Kiltua,63.828,27.8391,2.020474910736084
Kokkosniva,67.22305556,27.32111111,0.949458122253418
Kolsi,61.27333333,22.355,1.9844309091567995
Korkeakoski,60.53138889,26.9075,2.763071298599243
Kuhankoski,62.37583333,25.9475,3.870680570602417
Kuokkastenkoski,63.54111111,28.95361111,2.607418298721313
Kurittukoski,67.85861111,26.71472222,0.987400472164154
Kurkiaska,67.285,26.72861111,1.456162929534912
Kuurna,62.70527778,29.8725,3.3876163959503174
Kuusankoski hydropower plant,60.9075,26.64944444,3.651206970214844
LSV Harjavallan vesivoimalaitos,61.33777778,22.11555556,2.3911914825439453
Leppikoski,64.45555556,27.88722222,1.968372106552124
Leuhunkoski,62.66777778,25.26916667,3.5689523220062256
Lieksankoski,63.3362,30.03768,4.1932291984558105
Maalismaa,65.31083333,25.69361111,2.5347938537597656
Mankala,60.92694444,26.26805556,5.25338888168335
Matarakoski,67.5847,26.7453,1.084717869758606
Melo,61.462083,23.437917,5.237391471862793
Merikoski,65.02166667,25.4825,3.0614206790924072
Montta,64.82055556,26.01388889,2.925055742263794
Myllykosken vesivoimalaitos VVA2,60.76694444,26.77111111,2.317798137664795
Nuojua,64.57722222,26.71361111,3.358615636825561
Oksava,63.75,25.3333,1.907328963279724
Ossauskoski,66.155998,25.125,1.819179654121399
Pahkakoski,65.35833333,26.03833333,2.415958881378174
Palokki,62.56194444,28.625,3.9652860164642334
Pamilo Heinajoki,62.807917,30.529583,1.758257269859314
Pankakoski,63.32638889,30.13805556,3.2487809658050537
Peltokoski,62.42,30.43916667,4.234072208404541
Permantokoski,66.4925,26.12722222,2.720867395401001
Petajaskoski / Petäjäskoski,66.27222222,25.3375,2.1936192512512207
Pirttikoski,66.33972222,27.15361111,3.588047742843628
Portimokoski,66.37861111,23.78416667,1.9254392385482788
Porttipahta,68.10875,26.722083,0.3996478021144867
Puntarikoski,62.825417,29.475417,0.907309591770172
Pyhäkoski,64.84611111,26.04027778,2.603912115097046
Pälli,64.84333333,26.19388889,2.573303937911988
Raasakka,65.33444444,25.41166667,2.639061212539673
Ruskeakoski,62.42694444,30.4425,5.1773529052734375
Seitakorva,66.40583333,27.33027778,3.061943769454956
Seitenoikea,64.59222222,28.41611111,2.454136610031128
Tainionkoski Tainionkoski Hydroelectric Power Plant Finland - Tainionkoski Hydroelectric Power Plant Finland,61.210576,28.782635,3.30783486366272
Taivalkoski,65.931,24.714001,1.4524531364440918
Tammerkoski,61.4991,23.7871,2.567748546600342
Tampella ve,61.5037,23.7659,3.7461109161376953
Tyrvään vesivoimalaitos,61.32861111,22.84694444,2.935863971710205
Uljua,64.3333,25.85,1.588120937347412
Utanen,64.73638889,26.47777778,2.935504674911499
Vaaja,62.24472222,25.88722222,3.351715564727783
Vajukoski,67.69611111,26.80444444,1.4313268661499023
Valajaskoski,66.424004,25.540001,1.7824277877807615
Vanttauskoski,66.36875,26.689583,2.679330825805664
Verla 1 ja 2,61.06277778,26.63972222,4.595915794372559
Voikkaa hydropower plant,60.93833333,26.5975,4.0784783363342285
Vuolenkoski ve,61.07972222,26.1825,3.638899326324463
 Centrale Hydroéléctrique d'Arrens,42.9474,-0.2179,10.982635498046877
Aigle AIGLE 6 - L'Aigle Hydroelectric Generating Station France,45.24373,2.22483,17.13833999633789
Albaret-le-Comtal,44.8674,3.1442,5.54735803604126
Allement Allement Hydroelectric Power Station France - Allement Hydroelectric Power Station France,46.112,5.422,7.1733903884887695
Alrance Alrance Hydroelectric Power Station France - Alrance Hydroelectric Power Station France,44.1035517,2.6946591,1.2567557096481323
Aragnouet,42.7845,0.1782,17.79787254333496
Arbéost,42.9795,-0.2738,13.881699562072754
Arcambal,44.4548,1.5482,6.297688484191895
Argancy,49.1906164,6.1910177,1.894060730934143
Argentat Hydroelectric Generating Station - Argentat Hydroelectric Generating Station,45.104,1.954,9.99038791656494
Argentiere bessee Argentiere-La Bessee Hydroelectric Power Station France - Argentiere-La Bessee Hydroelectric Power Station France,44.79472222,6.55972222,6.175527572631836
Argentine,45.4894,6.3328,28.80021858215332
Arlos,42.8865,0.7118,10.247854232788086
Arreau,42.9143,0.3356,16.523975372314453
Artemare,45.8699,5.6901,3.149275064468384
Artouste Hydroelectric Power Station France - Artouste Hydroelectric Power Station France,42.887,-0.411,27.20465660095215
Arvan,45.25416667,6.32333333,11.877655982971191
Arvillard,45.4095,6.1709,19.227224349975582
Aston ASTON - Aston Hydroelectric Power Station France,42.77668,1.67671,9.40410327911377
Auribeau-sur-Siagne,43.6121,6.9118,7.063179016113281
Auterive,43.3594,1.4775,2.3515546321868896
Auzat,42.76298,1.47771,7.347584247589111
Auzerette Auzerette Hydroelectric Power Station France - Auzerette Hydroelectric Power Station France,45.365,2.646,16.526004791259766
Avignon AVIGNON VILLENEUVE - Avignon  Hydroelectric Power Station France,43.97606,4.81721,2.5123820304870605
Avrieux,45.1776,6.7466,15.989659309387209
Badecon-le-Pin/Roche-bat-l'Aigue,46.52972222,1.58138889,8.915382385253906
Bagnères-de-Bigorre,42.9745,0.1329,20.77663993835449
Baigts-de-Béarn,43.5094649,-0.8416505,2.894580364227295
Baix logis neuf BAIX LOGIS NEUF - Logis Neuf Hydroelectric Power Station France,44.67605,4.78827,1.9058681726455688
Banca,43.1001,-1.3716,13.728875160217283
Bancairon Bancairon Hydroelectric Power Station France - Bancairon Hydroelectric Power Station France,44.00166667,7.13694444,19.58697891235352
Bar,45.34416667,1.82388889,11.426413536071776
Beaucens,42.9519,0.0232,10.693011283874512
Beauchastel BEAUCHASTEL - Beauchastel Hydroelectric Power Station France,44.82397,4.81049,1.7409347295761108
Beaumont Beaumont Hydroelectric Power Station France - Beaumont Hydroelectric Power Station France,43.735,5.753,1.8534727096557613
Beauvoir Beauvoir Hydroelectric Power Station France - Beauvoir Hydroelectric Power Station France,45.121,5.319,6.130258560180664
Benagues,43.0775,1.6098,5.428651332855225
Bessières,43.797,1.5859,1.0749331712722778
Bessède-de-Sault,42.7854,2.1372,16.82901382446289
Beyrède-Jumet,42.9554,0.338,20.175586700439453
Bissorte Hydroelectric 1/2/3,45.202,6.585,17.079254150390625
Bonnac,43.1723,1.5878,9.992596626281738
Bonnevaux,46.2948,6.6664,11.321232795715332
Bort BORT 1 - Bort Les Orgues Hydroelectric Power Station France,45.41269,2.49862,11.28641414642334
Bourg les valence BOURG les VALENCE - Bourg Les Valence Hydroelectric Power Station France,44.96128,4.87221,1.991287112236023
Bourg-de-Sirod,46.72527778,5.95805556,10.367443084716797
Bourg-et-Comin,49.4027,3.6594,5.678863048553467
Bouvante,44.93555556,5.257222222,16.662399291992188
Bozel,45.4418754,6.6377553,14.64466381072998
Brassac,43.612,2.5118,13.504467010498049
Bregnier cordon Bregnier-Cordon Hydroelectric Power Station France - Bregnier-Cordon Hydroelectric Power Station France,45.654,5.605,3.06508469581604
Brens-Virigin Hydroelectric Power Station France - Brens-Virigin Hydroelectric Power Station France,45.725,5.698,2.946920871734619
Briançon/Pont Blady,44.8996,6.649,14.842827796936035
Brillanne & Brillanne I & II Hydroelectric Power Station France - Brillanne I & II Hydroelectric Power Station France,43.921,5.925,7.034865856170654
Brommat BROMMAT 6/7,44.76793,2.68415,17.660369873046875
Brousse-le-Château,44.0062,2.6383,9.715717315673828
Bujaleuf,45.8025,1.614444444,7.915683746337891
Buzy,43.1411,-0.4466,2.997566699981689
Caderousse CADEROUSSE - Caderousse Hydroelectric Power Station France,44.09606,4.72329,2.281276226043701
Cajarc,44.4939,1.8384,8.158435821533203
Calypso,45.235311,6.4399136,15.122493743896484
Cambeyrac Cambeyrac Hydroelectric Power Station France - Cambeyrac Hydroelectric Power Station France,44.655,2.574,14.858993530273438
Campan,42.9617,0.2164,18.181150436401367
Capdenac,44.5849,2.066,8.226262092590332
Cargiaca,41.7322,9.0412,14.882871627807615
Castelnau lassouts Castelnau-Lassouts Hydroelectric Power Station France - Castelnau-Lassouts Hydroelectric Power Station France,44.505,2.874,10.86324405670166
Castillon Castillon Hydroelectric Power Station France - Castillon Hydroelectric Power Station France,43.878,6.538,9.803512573242188
Castillon-en-Couserans,42.9142,1.02833,11.92421054840088
Castirla Hydroelectric Power Station France - Castirla Hydroelectric Power Station France,42.38,9.134,19.7526969909668
Caussade,44.157,1.5439,1.796532392501831
Causse-de-la-Selle,43.7932,3.6295,3.479952335357666
Centrale Hydro-Électrique Luz I & 2,42.87024,-0.01209,7.954634189605713
Centrale Hydroélectrique de Lau-Balagnas,42.9929,-0.0998,11.737700462341309
Centrale Hydroélectrique de Nouaux,42.9842,-0.1428,10.86210823059082
Centrale Hydroélectrique de Tucoy,42.90973,-0.25888,12.891749382019045
Centrale hydraulique EDF de Golfech - Sud-Ouest,44.1091231,0.8503732,3.3796777725219727
Champcella Champcella Hydroelectric Power Station France - Champcella Hydroelectric Power Station France,44.737,6.575,9.981806755065918
Champsanglard,46.2801,1.8891,5.291535377502441
Charritte-de-Bas,43.2951,-0.897,4.268091201782227
Chartrettes,48.4943,2.7131,3.162707567214966
Chastang CHASTANG (LE) 1 - Chastang Hydroelectric Generating Station France,45.15185,2.00985,14.314257621765137
Chaudanne Chaudanne Hydroelectric Power Station France - Chaudanne Hydroelectric Power Station France,43.848,6.544,19.0535945892334
Chautagne Chautagne Hydroelectric Power Station France - Chautagne Hydroelectric Power Station France,45.879,5.811,2.340059518814087
Cheylas CHEYLAS 1 - Cheylas (Le) Hydroelectric Power Station France,45.3846,6.00207,8.346430778503418
Château-Chinon (Campagne),47.0563,3.9403,4.4905877113342285
Châtel-Montagne,46.1002,3.7168,6.335309982299805
Châtellerault,46.8153,0.5526,1.5576038360595703
Châtelus-le-Marcheix,46.0068,1.6256,9.223015785217283
Cierp-Gaud,42.9129,0.6341,17.790878295898438
Cize bolozon Cize Bolozon Hydroelectric Power Station France - Cize Bolozon Hydroelectric Power Station France,46.211,5.465,14.02501106262207
Claux Claux Hydroelectric Power Station France - Claux Hydroelectric Power Station France,44.876,6.48,12.392683029174805
Coiselet Coiselet Hydroelectric Power Station France - Coiselet Hydroelectric Power Station France,46.294,5.592,11.409125328063965
Combe d'avrieux COMBE DAVRIEUX 1 - Aussois + Combe d'Avrieux Hydroelectric Power Station France,45.21348,6.72053,9.8953218460083
Cornimont,47.9686,6.8651,7.79046106338501
Couesque COUESQUE - Couesque Hydroelectric Power Station France,44.69609,2.58555,15.815862655639648
Curbans CURBANS - Curbans Hydroelectric Power Station France,44.42078,6.02016,2.2462379932403564
Cusset jonage Cusset-Jonage Hydroelectric Power Station France - Cusset-Jonage Hydroelectric Power Station France,45.79,5.025,2.509678602218628
DONZERE MONDRAGON - Bollene Hydroelectric Power Station France,44.304001,4.742,2.5330827236175537
Domène,45.2044,5.8371,2.630409240722656
Egets Egets Hydroelectric Power Station France - Egets Hydroelectric Power Station France,42.955,0.565,12.417706489562988
Eguzon Eguzon Hydroelectric Power Station France - Eguzon Hydroelectric Power Station France,46.455,1.613,8.019631385803223
Enchanet Enchanet Hydroelectric Power Station France - Enchanet Hydroelectric Power Station France,45.082,2.194,13.780840873718262
Entraygues-sur-Truyère,44.6548,2.5787,15.09078598022461
Eygliers Eygliers Hydroelectric Power Station France - Eygliers Hydroelectric Power Station France,44.672,6.65,12.36556911468506
Eymoutiers,45.7111,1.7405,5.782082557678223
Faux-la-Montagne,45.7431,1.9351,6.692873477935791
Felletin,45.8905,2.1825,5.799846172332764
Fessenheim FESSENHEIM - Fessenheim Hydroelectric Power Station France,47.91466,7.57067,1.8849409818649288
Foix,42.9654,1.6102,10.066468238830566
Fontan,44.0215,7.5448,19.70495986938477
Fontpédrouse,42.463,2.1949,16.582490921020508
Fos,42.8607,0.7473,13.225054740905762
Fumel,44.5079,0.9804,7.790801525115967
Gaillac,43.9165,1.8862,1.191982388496399
Gambsheim,48.682,7.919,2.800077199935913
Gargilesse-Dampierre,46.5061,1.6202,3.680361032485962
Genissiat GENISSIAT - Genissiat Hydroelectric Power Station France,46.05271,5.81285,9.886319160461426
Germ,42.7767,0.4407,15.317084312438965
Gerstheim GERSTHEIM - Gerstheim Hydroelectric Power Station France,48.40385,7.72775,2.275238275527954
Gervans Gervans Hydroelectric Power Station France - Gervans Hydroelectric Power Station France,45.136,4.806,5.31458044052124
Gignac,43.66361111,3.55722222,2.5406763553619385
Giuncaggio,42.1921,9.3824,16.14810562133789
Golinhac Golinhac Hydroelectric Power Station France - Golinhac Hydroelectric Power Station France,44.606,2.605,16.029972076416016
Gour Noir (Le) Hydroelectric Power Station France - Gour Noir (Le) Hydroelectric Power Station France,45.071,2.067,15.320415496826172
Grand maison GRAND MAISON 1 - Grand Maison Pumped Storage Hydroelectric Power Station France,45.20597,6.11719,14.806703567504885
Grandrif,45.5205,3.8348,8.464076042175293
Grandval Grandval Hydroelectric Power Plant France - Grandval Hydroelectric Power Plant France,44.9219,3.0745,10.468642234802246
Grangent Grangent Hydroelectric Power Station France - Grangent Hydroelectric Power Station France,45.467,4.248,9.403280258178713
Guchen,42.8567,0.3213,23.71590042114257
Hautefage Hautefage Hydroelectric Power Station France - Hautefage Hydroelectric Power Station France,45.06,1.994,15.536462783813477
Hauteluce,45.7642,6.6156,10.703778266906738
Hermillon HERMILLON,45.28424,6.35799,6.922633647918701
Hillion,48.5028,-2.6463,1.1345784664154053
Hospitalet l' Hospitalet (L') Hydroelectric Power Station France - Hospitalet (L') Hydroelectric Power Station France,42.588,1.797,15.14270305633545
Hourat Hourat Hydroelectric Power Station France - Hourat Hydroelectric Power Station France,43.075,-0.42,7.020373344421387
Izernore,46.2184,5.5632,3.371083498001098
Jouques Jouques Hydroelectric Power Station France - Jouques Hydroelectric Power Station France,43.681,5.656,10.5005464553833
Jouy-aux-Arches,49.0644,6.0867,6.146140098571777
Kembs KEMBS - Kembs Hydroelectric Power Station France,47.655,7.52,2.5668179988861084
L'Isle-Jourdain,46.2384,0.6985,2.145280122756958
La Bastide-Puylaurent,44.5658,3.888,10.22091293334961
La Bathie - Roseland,45.68545,6.62249,8.45772933959961
La Bresse,48.0184,6.9255,10.867755889892578
La Bridoire,45.5299,5.7378,4.403320789337158
La Grave,45.0601,6.2836,9.446550369262695
La Llagonne,42.5377,2.094,3.017155170440674
La Roche-de-Rame,44.7659,6.617,17.935199737548828
La Soula,42.7225,0.41944444,15.887693405151367
Lacourt,42.9332,1.1708,12.975640296936035
Laguiole,44.6943,2.8677,4.974070072174072
Lanau Lanau Hydroelectric Power Station France - Lanau Hydroelectric Power Station France,44.891,3.003,11.093645095825195
Landry,45.5637,6.7617,15.14219093322754
Langogne,44.7238,3.8338,2.766928434371948
Lantosque,43.9706,7.3049,13.524806022644045
Laparan,42.6717259,1.7009906,19.499755859375
Lardy Lardy Hydroelectric Power Station France - Lardy Hydroelectric Power Station France,44.662,2.583,11.624829292297363
Largue Largue Hydroelectric Power Station France - Largue Hydroelectric Power Station France,43.854,5.859,1.9334503412246704
Laroquebrou,44.9744,2.1934,5.763413906097412
Larrau,43.01,-0.973,15.979262351989746
Laval,45.2362,5.9815,11.826790809631348
Laval cere & Laval de Cere  1 & 2 Hydroelectric Power Station France - Laval de Cere  1 & 2 Hydroelectric Power Station France,44.953,1.95,16.807260513305664
Laval-de-Cère/Barrage de Brugale,44.9443,1.9359,8.960694313049316
Lavours,45.8115,5.7724,3.5901436805725098
Lazer le Lazer (Le) Hydroelectric Power Station France - Lazer (Le) Hydroelectric Power Station France,44.346,5.868,3.8282082080841056
Le Bourg-d'Hem,46.3006,1.8404,5.15147066116333
Le Cannet-des-Maures,43.3739,6.3755,2.2919063568115234
Le Palais-sur-Vienne,45.8737,1.3248,5.966341972351074
Le Tech,42.4418,2.513,16.002347946166992
Licq atherey Licq-Atherey Hydroelectric Power Station France - Licq-Atherey Hydroelectric Power Station France,43.048,-0.886,18.80307579040528
Livet-et-Gavet,45.0905,5.9188,24.307662963867188
Livinhac-le-Haut,44.5968,2.2161,6.630667209625244
Lot Lot Hydroelectric Power Station France - Lot Hydroelectric Power Station France,44.663,2.664,9.517964363098145
Loudenvielle,42.7302,0.4323,30.14658164978028
Lugo di nazza Lugo Di Nazza Hydroelectric Power Station France - Lugo Di Nazza Hydroelectric Power Station France,42.091,9.316,10.420270919799805
Lusigny-sur-Barse,48.263,4.2773,2.399726152420044
Luz-Saint-Sauveur,42.8322,0.0177,26.105133056640625
Luzenac,42.7199,1.7426,13.140044212341309
MONTELIMAR - Chateauneuf Du Rhone Hydroelectric Power Station France,44.499001,4.708,2.186686992645264
Malgovert,45.61787,6.79074,13.06521987915039
Mallemort Mallemort Hydroelectric Power Station France - Mallemort Hydroelectric Power Station France,43.715,5.205,3.779374122619629
Manosque voix Manosque-Voix Hydroelectric Power Station France - Manosque-Voix Hydroelectric Power Station France,43.85081,5.83276,2.199620008468628
Marcillac - barrage la Valette,45.215,2.038,15.949612617492676
Marckolsheim MARCKOLSHEIM - Marckolsheim Hydroelectric Power Station France,48.15371,7.5898,2.000112533569336
Mareges MAREGES - Mareges Hydroelectric Power Station France,45.39171,2.36446,16.971628189086914
Mazamet,43.458,2.3893,12.276714324951172
Mazet Hydroelectric Power Station France - Mazet Hydroelectric Power Station France,45.801,1.803,7.605619430541992
Metz/Central hydraulique de Metz-Wadrinau,49.1198,6.154,3.500925064086914
Meyras,44.6766,4.2604,10.906765937805176
Millac/La Roche,46.1954,0.7055,1.0092045068740845
Miramont-de-Comminges,43.0912,0.7558,7.811485767364502
Mirandol-Bourgnounac,44.1468,2.1715,4.377527236938477
Mizoën,45.0431,6.1821,24.515457153320312
Monceaux La Virolle Hydroelectric Power Station France - Monceaux La Virolle Hydroelectric Power Station France,45.576,1.84,8.54287338256836
Montahut Montahut Hydroelectric Power Station France - Montahut Hydroelectric Power Station France,43.571,2.94,11.435995101928713
Montauban,44.0226,1.3638,1.614905834197998
Montbrun,44.5114,1.9032,8.064657211303711
Monteynard MONTEYNARD - Monteyard-Avigonnet Hydroelectric Power Station France,44.96118,5.68874,20.49276161193848
Montezic MONTEZIC 1 - Montezic Pump Storage Hydroelectric Power Station France,44.73766,2.64342,16.414365768432617
Montpezat MONTPEZAT,44.69026,4.27215,14.067760467529297
Montsapey,45.5313,6.3673,16.829504013061523
Motz,45.9191,5.8448,6.901109218597412
Moux charmines Moux Charmines Hydroelectric Power Station France - Moux Charmines Hydroelectric Power Station France,46.277,5.554,10.67581558227539
Moûtiers,45.4864,6.5373,13.734575271606444
Méolans-Revel,44.371,6.498,13.381929397583008
Méréville,48.5912,6.1369,3.036505937576294
Nantes-en-Ratier,44.9279,5.8283,5.200288772583008
Nentilla Nentilla Hydroelectric Power Station France - Nentilla Hydroelectric Power Station France,42.772,2.213,21.722393035888672
Neuville-sur-Ain,46.08166667,5.37944444,4.442399978637695
Noirefontaine/Dampjoux,47.3471,6.7644,9.785555839538574
Nyer,42.5014,2.2744,23.12227249145508
Ocana Ocana Hydroelectric Power Station France - Ocana Hydroelectric Power Station France,41.946,8.935,13.245124816894531
Olargues,43.5411,2.9176,15.574637413024902
Olette,42.5962,2.2423,19.202865600585938
Oloron-Sainte-Marie,43.16305556,-0.59194444,4.163773536682129
Oo Hydroelectric Power Station France - Oo Hydroelectric Power Station France,42.804,0.56,16.721900939941406
Oraison ORAISON - Oraison Hydroelectric Power Station France,43.92101,5.92438,6.692893981933594
Orelle,45.20308,6.57913,20.209732055664062
Orgeix,42.6757,1.8767,15.037168502807615
Orlu Orlu Hydroelectric Power Station France - Orlu Hydroelectric Power Station France,42.689,1.912,16.46371841430664
Ottmarsheim OTTMARSHEIM - Ottmarsheim Hydroelectric Power Station France,47.77399,7.52246,1.8597604036331177
Pardies,43.3858,-0.5879,2.360389232635498
Passy,45.954,6.7398,10.1260404586792
Passy PASSY,45.91642,6.72592,10.534913063049316
Perles-et-Castelet,42.7179,1.774,19.26844596862793
Pied borne PIED DE BORNE - Pied-de-Borne Hydroelectric Power Station France,44.47198,3.98867,14.546209335327148
Pierre benite Pierre Benite Hydroelectric Power Station France - Pierre Benite Hydroelectric Power Station France,45.702,4.842,1.843945264816284
Pinet Hydroelectric Power Station France - Pinet Hydroelectric Power Station France,44.07,2.805,14.962515830993652
Plouasne,48.3118,-2.0078,2.2387726306915283
Pointis-Inard,43.0837,0.7971,4.2160491943359375
Pointis-de-Rivière,43.0911,0.6255,1.964721083641052
Pont-de-Roide,47.3853,6.7628,6.766481399536133
Pontcharra,45.43293,6.03032,8.66843318939209
Port-Mort,49.1697841,1.3876834,3.7910969257354736
Portillon le Portillon (Le) Hydroelectric Power Station France - Portillon (Le) Hydroelectric Power Station France,42.733,0.553,19.948017120361328
Poses,49.3096743,1.2362412,2.366360902786255
Pouget POUGET 4 - Pouget (Le) Hydroelectric Power Station France,44.0597,2.77,17.897092819213867
Pragneres Hydroelectric Power Station France,42.8211,0.01033,19.55133438110352
Pralognan-la-Vanoise,45.3501,6.7208,21.04502487182617
Prayssac,44.502783,1.1732197,2.4701597690582275
Queige,45.71916667,6.49861111,15.915437698364258
Quinson Quinson Hydroelectric Power Station France - Quinson Hydroelectric Power Station France,43.699,6.051,8.078862190246582
Rabodanges,48.8003,-0.2895,2.481612205505371
Rance tidal RANCE - Rance Tidal Hydroelectric Power Station France,48.6180022,-2.0238876,0.0362986512482166
Randens RANDENS,45.52711,6.31996,13.106324195861816
Revin REVIN 1 - Revin Pump Storage Hydroelectric Power Station France,49.92556,4.61331,8.144688606262207
Rhinau RHINAU - Rhinau Hydroelectric Power Station France,48.28412,7.67728,2.2427728176116943
Rhue Rhue (La) Hydroelectric Power Station France - Rhue (La) Hydroelectric Power Station France,45.415,2.499,9.95456886291504
Roanne,46.0451,4.0801,2.3883447647094727
Romanche-Gavet,45.1171846,5.9590868,19.593849182128903
Roquebillière,44.02138889,7.30722222,11.012956619262695
Sablons PEAGE DE ROUSSILLON - Sablons Hydroelectric Power Station France,45.307,4.797,2.079699993133545
Sail-sous-Couzan,45.7367,3.9618,9.041929244995115
Saint cassien Saint Cassien Hydroelectric Power Station France - Saint Cassien Hydroelectric Power Station France,43.602,6.841,14.039240837097168
Saint chamas SAINT CHAMAS - Saint Chamas Hydroelectric Power Station France,43.52741,5.07342,3.0361735820770264
Saint dalmas Saint Dalmas Hydroelectric Power Station France - Saint Dalmas Hydroelectric Power Station France,44.047,7.586,16.977027893066406
Saint esteve SAINT ESTEVE - Saint Esteve-Janson Hydroelectric Power Station France,43.69049,5.38489,8.72115707397461
Saint georges commiers Saint Georges de Commiers Hydroelectric Power Station France - Saint Georges de Commiers Hydroelectric Power Station France,45.006,5.687,10.182029724121094
Saint guillerme SAINT GUILLERME - St. Guillerme Hydroelectric Power Station France,45.03048,6.07914,28.42564392089844
Saint pierre cognet,44.87249,5.77319,13.628409385681152
Saint-Alban-des-Villards,45.3146,6.2362,20.2181396484375
Saint-Barthélemy-de-Séchilienne,45.0397,5.8221,15.26783275604248
Saint-Barthélemy-le-Plain,45.0453,4.7436,4.700344085693359
Saint-Christophe-en-Oisans,44.9289,6.2441,26.706918716430664
Saint-Cézaire-sur-Siagne,43.6597,6.8033,4.168329238891602
Saint-Dalmas-le-Selvage,44.2894,6.841,18.358154296875
Saint-Denis-des-Murs,45.7797,1.5295,3.20186710357666
Saint-Firmin,44.7936,6.0261,11.288243293762209
Saint-Flour/Centrale hydroelectrique EDF de Sauviat,45.7102,3.5096,3.90250301361084
Saint-Gervais-d'Auvergne,46.0192,2.8311,2.607785224914551
Saint-Gervais-les-Bains,45.857,6.741,16.65943717956543
Saint-Girons,42.9756,1.1531,3.691277742385864
Saint-Jean-de-Maurienne,45.2719,6.3455,3.070112705230713
Saint-Jeoire,46.1387,6.4645,8.137883186340332
Saint-Julien-Mont-Denis,45.2803,6.4175,18.9633846282959
Saint-Julien-le-Petit,45.8223,1.7051,6.082551002502441
Saint-Laurent-du-Var,43.6865,7.1823,6.8115553855896
Saint-Laurent-en-Beaumon,44.89527778,5.85805556,14.51191520690918
Saint-Laurent-en-Royans,45.0098,5.3463,21.635650634765625
Saint-Lizier,43.0002,1.1292,5.013443946838379
Saint-Léonard-de-Noblat,45.841,1.4954,4.578063488006592
Saint-Mamet-la-Salvetat,44.8566,2.3054,4.019735813140869
Saint-Martin-du-Var,43.8162,7.1996,11.208484649658203
Saint-Maurice-Navacelles,43.8448,3.5064,1.4808683395385742
Saint-Maurice-de-Lignon,45.2330869,4.1547189,15.767884254455566
Saint-Maurice-en-Valgodemard,44.7984,6.1126,26.1590633392334
Saint-Paul-sur-Ubaye,44.559,6.8207,21.506935119628903
Saint-Pierre-Chérignat,45.9602,1.6139,4.444088459014893
Saint-Pierre-en-Faucigny,46.0468,6.37475,15.039284706115724
Saint-Priest-Taurion,45.9063392,1.4122593,8.087395668029785
Saint-Étienne-de-Cuines,45.3454,6.2602,17.202314376831055
Sainte Helene - La Coche,45.49667,6.51038,12.560001373291016
Sainte croix,43.73687,6.13423,12.797077178955078
Sainte tulle i&ii Sainte Tulle I&II Hydroelectric Power Station France - Sainte Tulle I&II Hydroelectric Power Station France,43.787,5.774,2.9963200092315674
Sainte-Agnès,45.2106,5.96,15.901384353637695
Sainte-Foy-Tarentaise,45.5844,6.9414,20.104053497314453
Sainte-Marie-de-Cuines,45.3191,6.2942,20.19614028930664
Salignac Salignac Hydroelectric Power Station France - Salignac Hydroelectric Power Station France,44.138,5.979,4.841148376464844
Salon Salon Hydroelectric Power Station France - Salon Hydroelectric Power Station France,43.633,5.114,3.017896175384521
Sarrans SARRANS - Sarrans Hydroelectric Power Station France,44.82942,2.74042,11.679797172546388
Sassenage,45.20856,5.65681,12.877276420593262
Sault brenaz Sault Brenaz Hydroelectric Power Station France - Sault Brenaz Hydroelectric Power Station France,45.846,5.418,3.834149122238159
Saussaz SAUSSAZ,45.20992,6.47663,12.056360244750977
Saut mortier Saut Mortier Hydroelectric Power Station France - Saut Mortier Hydroelectric Power Station France,46.372,5.642,10.336919784545898
Sautet le Sautet (Le) Hydroelectric Power Station France - Sautet (Le) Hydroelectric Power Station France,44.817,5.908,12.454520225524902
Sauto,42.5155,2.1488,11.8595609664917
Serdinya,42.5763,2.3226,18.54120826721192
Serre poncon SERRE PONCON - Serre Poncon Hydroelectric Power Station France,44.47095,6.26967,12.321529388427734
Servières-le-Château,45.1402,2.0225,6.129528045654297
Seyssel Hydroelectric Power Station France - Seyssel Hydroelectric Power Station France,45.971,5.834,4.347340106964111
Sisteron SISTERON 1 - Sisteron Hydroelectric Power Station France,44.17517,5.95215,4.85469913482666
Soulom Soulom Hydroelectric Power Station France - Soulom Hydroelectric Power Station France,42.953,-0.069,10.353763580322266
St etienne cantales ST ETIENNE CANTALES - Saint Etienne Cantales Hydroelectric Power Station France,44.94516,2.21906,6.577426433563232
Strasbourg STRASBOURG - Strasbourg Hydroelectric Power Station France,48.52561,7.79456,2.23801064491272
Teich Teich Hydroelectric Power Station France - Teich Hydroelectric Power Station France,42.71,1.864,16.259727478027344
Teillet-Argenty,46.2627,2.517,5.08828067779541
Tende,44.0996,7.5403,21.175331115722656
Tet (La) Hydroelectric Power Station France - Tet (La) Hydroelectric Power Station France,42.553,2.267,15.7662935256958
Thuès-Entre-Valls,42.5036,2.23,23.81539726257324
Tolla,41.9637369,8.9663116,12.620624542236328
Toulouse/Bazacle Complex,43.60277778,1.4325,4.10204553604126
Tramezaygues,42.7442,0.41,21.674728393554688
Triouzoune Hydroelectric Power Station France - Triouzoune Hydroelectric Power Station France,45.347,2.349,14.77749729156494
Truel Truel Hydroelectric Power Station France - Truel Hydroelectric Power Station France,44.06,2.769,17.61255645751953
Tuilieres Tuilieres Hydroelectric Power Station France - Tuilieres Hydroelectric Power Station France,44.845,0.633,2.872960090637207
Usson,45.5271,3.3419,5.990846157073975
Uzerche,45.4242,1.5653,8.666998863220215
Val beynette Val Beynette Hydroelectric Power Station France - Val Beynette Hydroelectric Power Station France,45.416,2.372,14.096746444702148
Valentine,43.09666667,0.70083333,2.0098934173583984
Vallabregues VALLABREGUES - Beaucaire Hydroelectric Power Station France,43.82415,4.64349,1.891459345817566
Varilhes,43.0551,1.6343,2.4556260108947754
Vaufrey,47.3405,6.9306,9.46796989440918
Vaugris Vaugris Hydroelectric Power Station France - Vaugris Hydroelectric Power Station France,45.495,4.826,2.793792963027954
Venthon,45.69389,6.40457,11.599343299865724
Villar-d'Arêne,45.0001,6.3639,23.04896545410156
Villard-sur-Doron,45.7274,6.5193,17.485809326171875
Villarodin VILLARODIN 1 - Villarodin Hydroelectric Power Station France,45.21466,6.71208,12.801172256469728
Villaroger,45.5574,6.8693,18.83481216430664
Villefranche-de-Panat,44.0976,2.7161,2.0570826530456543
Villelongue,42.9429,-0.0167,23.70624351501465
Villerest Hydroelectric Power Station France - Villerest Hydroelectric Power Station France,45.9869,4.04938,6.77063512802124
Vinon Vinon Hydroelectric Power Station France - Vinon Hydroelectric Power Station France,43.725,5.827,7.148940563201904
Vogelgrun VOGELGRUN - Vogelgrun Hydroelectric Power Station France,48.0203,7.57393,2.0201632976531982
Vouglans VOUGLANS - Vouglans Hydroelectric Power Station France,46.39734,5.66556,10.634355545043944
Voutezac,45.2928,1.4406,7.74973726272583
Zicavo,41.8845,9.167,7.397912502288818
Épierre,45.4523,6.3254,20.73675537109375
Atshesi (Atsi) Hydroelectric Power Plant Georgia,41.5841,41.8903,17.374425888061523
Chitakhevi Hydroelectric Power Plant Georgia,41.7914,43.302,10.10109519958496
Dzevrula (Tkibuki-II) Hydroelectric Power Plants Georgia,42.2629,42.9582,18.118106842041016
Gumati I and II Hydroelectric Power Plants Georgia,42.3202,42.704,6.735936164855957
Inguri (Enguri) Dam Hydroelectric Power Station Georgia,42.7584,42.0309,18.236146926879883
Khrami I Hydroelectric Power Plant Georgia,41.5489,44.1235,14.590609550476074
Khrami II Hydroelectric Power Plant Georgia,41.5461,44.1277,17.19830894470215
Lajanuri Hydroelectric Power Plant Georgia,42.589,42.8519,19.573352813720703
Ortachala Hydroelectric Power Plant Georgia,41.6831,44.8266,3.3282124996185303
Rioni Hydroelectric Power Plant Georgia,42.2006,42.7258,4.556412696838379
Satskhenisi Hydroelectric Power Plant Georgia,41.7048,44.9328,2.276161432266236
Shaori Hydroelectric Power Plants Georgia,42.3637,43.0034,9.837313652038574
Vardnili I Hydroelectric Power Plant Georgia,42.6524,41.7619,8.403724670410156
Vartsikhe Cascade Hydroelectric Power Plants Georgia,42.1545,42.7088,1.1233371496200562
Zahesi Hydroelectric Power Plant Georgia,41.8226,44.76,8.029545783996582
Zhinvali Hydroelectric Power Plant Georgia,42.1349,44.7721,10.820998191833496
Albbruck dogern,47.5985,8.171,1.7572458982467651
Altheim,48.5837,12.2186,3.028337478637696
Altusried M2,47.817052,10.227499,6.597603797912598
Alzwerke,48.18324,12.85345,6.370838165283203
Aufkirchen,48.3066864,11.858847,2.369004249572754
Bergheim,48.750807,11.273237,3.2802867889404297
Bertoldsheim,48.735932,11.020923,2.784057378768921
Bigge,51.093173,7.86272,1.6228675842285156
Bittenbrunn,48.734459,11.14382,5.164350986480713
Bleiloch,50.52438482,11.71438694,6.6651458740234375
Bobingen M1,48.26,10.8,2.8877408504486084
Dessau,47.739292,10.825702,4.85840368270874
Dettingen,48.11222222,10.13277778,2.7475743293762207
Detzem,49.810941,6.843882,4.434633255004883
Dingolfing,48.63404,12.48369,1.907488226890564
Dornau,47.8001993,10.9026434,6.225865840911865
Egglfing,48.3202287,13.31740725,2.0634796619415283
Eitting,48.3585905,11.8821921,2.2098891735076904
Ellgau,48.596746,10.8789,3.707879304885864
Enkirch,49.97667,7.127777,4.7389349937438965
Erzhausen PSW Erzhausen Block 1 - Erzhausen Pumped Storage Power Plant Germany,51.89912,9.92452,4.046236515045166
Ettling,48.6960722,12.7977619,4.437628746032715
Faimingen,48.558394,10.411764,4.823183536529541
Fankel,50.123918,7.225915,9.595419883728027
Feldkirchen,47.96092,12.1561,5.792693138122559
Fluhmühle,47.839568,10.192668,8.187302589416504
Gars,48.15395,12.31107,3.66311240196228
Geesthacht,53.41888889,10.39388889,5.358351707458496
Geisling,48.974806,12.344002,2.2324635982513428
Goldisthal PSW Goldisthal PSS A - Goldisthal Pumped Storage Power Plant Germany,50.50975864,11.02087498,7.902405261993408
Großaitingen M1,48.23,10.76,1.2889553308486938
Gummering,48.622456,12.398037,4.1347527503967285
Haeusern Schluchsee,47.755001,8.188,12.379053115844728
Haminan höyrykattilalaitos,51.520132,14.337383,2.3253514766693115
Heimbach,50.628568,6.451776,11.7547607421875
Hemfurth,51.167139,9.046832,7.78397274017334
Hohenwarte,50.61433423,11.49212837,10.284453392028809
Höchstädt,48.603156,10.582724,3.7148399353027344
Ingolstadt,48.750317,11.412153,3.4155874252319336
Inningen M1,48.29,10.83,1.983954071998596
Jettenbach,48.177714,12.381857,3.1952686309814453
KW Gundelsheim,49.280578,9.156055,2.2599453926086426
KW Öpfingen,48.29463,9.830391,2.2930264472961426
Kachlet,48.5797112,13.4082738,3.16075086593628
Kaufering,48.084026,10.864936,2.174001455307007
Koblenz,50.365855,7.58171,2.884788274765014
Koepchenwerk Koepchenwerk - Koepchenwerk II (Herdecke) Pumped Storage Power Plant Germany,51.41048,7.45314,8.059176445007324
Kraftwerk Rothenfels,49.90018,9.58676,7.09535551071167
Landau,48.667862,12.660027,4.621245861053467
Laufwasserkraftwerk Hengstey,51.400404,7.45204,4.63344669342041
Legau M1,47.869845,10.181145,7.755614757537842
Lehmen,50.274724,7.458957,8.131643295288086
Leitzach,47.873938,11.87099,3.6610453128814697
Markersbach PSW Markersbach PSS A - Markersbach Pumped Storage Power Plant Germany,50.51938,12.87976,6.6100263595581055
Meitingen,48.546994,10.86507,2.5311825275421143
Merching,48.2704497,10.9773463,1.4983896017074585
Mittelstetten M1,49.21,10.72,1.0975433588027954
Müden,50.18416667,7.33277778,12.50106430053711
Mühltal,47.99629724,11.48542787,3.4779036045074463
Neef,50.087362,7.135809,6.408146858215332
Neuötting,48.2497,12.6911116,2.8721847534179688
Niederaichbach,48.6039132,12.3023425,5.183172225952148
Niederwartha,51.09153428,13.60982895,4.651432037353516
Nußdorf,47.74444,12.1348886,2.742445230484009
Obernach,47.554694,11.291366,8.915281295776367
Oberpeiching,48.646423,10.879086,4.404109954833984
PSW Hohenwarte II PSS A,50.615002,11.492,10.815375328063965
Perach,48.0261021,12.789632,1.8359683752059937
Pfrombach,48.44132,11.99233,2.43862533569336
Pielweichs,48.76166667,12.87027778,3.312820672988892
Prem,47.692726,10.797592,3.4040944576263428
Prittriching,48.21062,10.904933,2.434610366821289
Psw langenprozelten,50.05313,9.58137,10.140899658203123
Psw vianden Vianden 1 - Vianden Pumped Storage Power Plant Luxembourg,49.95156713,6.180031287,13.275625228881836
Pumpspeicherkraftwerk glems,48.50499,9.28692,6.084741592407227
Pumpspeicherwerk rönkhausen Rönkhausen Pumped Storage Power Plant Germany - Rönkhausen Pumped Storage Power Plant Germany,51.22475,7.99281,11.80471134185791
Radag,47.58629,8.13207,4.124981880187988
Rain,48.692383,10.897786,4.044414520263672
Reckingen,47.57122,8.338716,2.425586223602295
Reisach,49.53002,12.28481,8.893716812133789
Rheinfelden,47.56990573,7.810113464,2.8357155323028564
Rheinkraftwerk iffezheim Rheinkraftwerk Iffezheim,48.83135,8.11216,2.599942207336426
Rosenheim,47.83825,12.15333,2.317945003509521
Roßhaupten,47.651451,10.735525,4.228621482849121
Rudolf fettweis werk,48.67128595,8.354376729,11.795868873596191
Scheuring,48.180229,10.8833102,2.5364930629730225
Schwabmünchen M1,48.191,10.729,2.869994640350342
Schwabstadl,48.148375,10.867023,3.2856218814849854
Schwammenauel,50.628507,6.479111,12.602139472961426
Schwarzenbach,48.6559308,8.3262275,6.048859119415283
Serrig,49.566954,6.592348,10.443589210510254
Sorpesee,51.3510404,7.9680569,4.2368645668029785
Stammham,48.24932,12.86469,2.6120924949646
Straubing,48.89659,12.55752,2.11928391456604
Säckingen,47.5619736,7.95484645,5.100071907043457
Säckingen run-of-river,47.55828,7.9558,3.046351194381714
Tannheim,48.00795,10.118537,2.610013008117676
Tanzmühle,49.552216,12.281256,8.241251945495605
Teufelsbruck,48.11444444,12.27194444,10.356201171875
Trier,49.728029,6.624451,2.8642539978027344
Töging,48.2518176,12.5873078,3.5180811882019043
Unterbergen,48.237449,10.92718,1.7607970237731934
Unteropfingen,48.0612649,10.1284379,1.6980534791946411
Uppenborn,48.473474,11.95481,4.743533611297607
Uppenborn 2,48.5152,12.101,7.427632808685303
Urspring,47.71598,10.825785,1.4028215408325195
Vohburg,48.778103,11.60119,3.393705368041992
WKW Großarmschlag Hauptkraftwerk,48.883166,13.359728,11.88162326812744
WKW II/ Alzarkraftwerke Heider,48.068,12.576,3.603248119354248
WKW III,48.154,12.652,7.035924911499023
Walchensee,47.631354,11.337054,8.207043647766113
Waldeck I Pumped Storage Power Plant Germany - Waldeck I Pumped Storage Power Plant Germany,51.166,9.0461,9.27735424041748
Waldeck bringhausen Waldeck II M5 - Waldeck II Pumped Storage Power Plant Germany,51.167139,9.046832,7.78397274017334
Waldshut Schluchsee,47.61777,8.1926,4.078137874603272
Wasserburg,48.05699,12.22074,5.3437180519104
Wasserkraftanlage Odertalsperre,51.646122,10.504712,13.222057342529297
Wasserkraftanlage Okertalsperre,51.86256,10.471185,12.845230102539062
Wehr Kraftwerk Wehr - Wehr Pumped Storage Hydroelectric Power Plant Germany,47.64529898,7.91819945,14.115012168884276
Wendefurth Wendefurth Pumped Storage Power Plant Germany - Wendefurth Pumped Storage Power Plant Germany,51.74223,10.91879,9.593524932861328
Weserkraftwerk bremen,53.061134,8.864937,2.209381341934204
Wintrich,49.879784,6.948762,3.4838085174560547
Witznau Schluchsee,47.68791,8.25159,14.505434036254885
Zeltingen,49.951074,7.023166,8.2134370803833
AGRAS,40.806,22.003,7.275915622711182
Asomata ASOMATA - Asomata Hydroelectric Power Plant Greece,40.4744,22.2439,10.04778289794922
Ilarionas ILARIONAS - Ilarionas Hydroelectric Power Plant Greece,40.0966,21.8039,12.17750644683838
Kastraki KASTRAKI - Kastraki Hydroelectric Power Plant Greece,38.7415,21.3642,6.680088996887207
Kremasta,38.890417,21.499583,5.696292877197266
LOUROS,39.251598,20.8648,6.019445419311523
Ladonas LADONAS,37.75,21.8833333,12.726347923278809
Mesochora Hydroelectric Power Plant Greece - Mesochora Hydroelectric Power Plant Greece,39.4644,21.3042,20.83142471313477
Piges Aoos Hydroelectric Power Plant Greece,39.6871,20.8421,0.6379846334457397
Plastiras PLASTIRAS - Plastira Hydroelectric Power Plant Greece,39.2361,21.7462,15.147882461547852
Platanovrysi PLATANOVRYSI - Platanovrisi Hydroelectric Power Plant Greece,41.3355,24.4621,10.570034980773926
Polyfyto POLYFYTO - Polyfyto  Hydroelectric Power Plant Greece,40.3305,22.1253,18.83944320678711
Pournari,39.1845,21.0255,7.311484336853027
Sfikia SFIKIA - Sfikia Hydroelectric Power Plant Greece,40.3856573,22.2113777,5.326416969299316
Smokovo,39.1463,22.0629,7.360517978668213
Stratos,38.676,21.3233,6.129576683044434
Thisavros φράγμα θησαυρού,41.267032,24.5008777,4.229714870452881
HE Tiszalok,48.025136,21.307715,2.446481227874756
Kesznyeten hernadviz hungary Kesznyeten (Hernadviz) Hydroelectric Power Plant Hungary - Kesznyeten (Hernadviz) Hydroelectric Power Plant Hungary,47.995972,21.033037,2.240161895751953
Kiskore hungary Kiskore Hydroelectric Power Plant Hungary - Kiskore Hydroelectric Power Plant Hungary,47.493163,20.514556,2.0705485343933105
Andakíl,64.5386,-21.695,5.045880317687988
Blanda,65.4158,-19.8198,3.342336416244507
Búrfell,64.1052,-19.8335,4.9727463722229
Búðarháls,64.2355,-19.3707,4.171481132507324
Fljótsdalsvirkjun (Kárahnjúkar ),64.9471,-15.7931,4.94133996963501
Hrauneyjafoss,64.2009,-19.2406,4.044402122497559
Lagarfoss,65.5069,-14.3656,2.389371395111084
Laxárvirkjun 3,65.8182,-17.314,3.6465039253234863
Ljósafossvirkjun,64.0944,-21.0107,1.8948394060134888
Sigalda,64.1733,-19.1272,4.932013988494873
Steingrímsstöð,64.129,-21.0266,4.2620849609375
Sultartangi,64.1672,-19.6212,3.5215840339660645
Vatnsfell,64.1966,-19.0341,4.191465854644775
Írafoss,64.0875,-21.0077,2.7598323822021484
Ardnacrucha production unit Ardnacrusha Unit 1 - Ardnacrusha Hydroelectric Power Plant Ireland,52.7056,-8.6128,2.602601289749145
Erne Scheme,54.5,-8.19,2.9799816608428955
Lee Scheme,51.89,-8.61,3.350290298461914
Liffey Scheme / Poulaphouca,53.1233,-6.5058,0.0
Turlough hill Turlough Hill Unit 1 - Turlough Hill (Tomaneena) Pumped Storage Hydroelectric Power Plant Ireland,53.0280556,-6.3930556,10.233256340026855
 Valsoera - Telessio,45.487814,7.395236,14.73137378692627
Acceglio,44.474627,6.990918,15.05597972869873
Acquoria,41.960922,12.798884,6.188169479370117
Agordo,46.2855556,12.0375,12.414326667785645
Agri,40.289012,16.139079,11.510627746582031
Ala,45.758995,11.000182,3.20667028427124
Alanno,42.295438,13.971105,8.224699020385742
Albano,46.131588,9.280837,6.748144626617432
Albi Magisano,39.01339,16.6279,12.8633394241333
Anapo c.le UP_ANAPO_C.L_1 - Anapo Pumped Storage Power Plant Italy,37.115761,15.137157,6.516382217407227
"Andonno c,",44.314628,7.482432,7.686151504516602
Ardenno,46.164292,9.644944,1.8544546365737915
Arsie',45.983007,11.758295,7.644137382507324
Ascoli porta romana,42.85527778,13.56527778,8.201793670654297
Aventino,42.004033,14.156813,8.15522289276123
Avise UP_AVISE_1,45.700913,7.193059,9.71742343902588
Balsorano,41.80388889,13.55888889,6.907768726348877
Barca cle,40.2333333,15.2333333,6.928210258483887
Barcis,46.1597222,12.6594444,6.1924333572387695
Bardonecchia,45.07972222,6.71055556,9.39878273010254
Bardonetto - Pont,45.40861111,7.48722222,13.877812385559082
Bargi UP_BARGI_CEN_1,44.117039,11.04338,9.536441802978516
Baschi,42.672832,12.21796,6.567968845367432
Battiggio,45.98305556,8.12694444,15.835012435913086
Bergkristall Stieber,46.827532,11.169127,15.748455047607422
Boazzo,45.947196,10.62107,20.170860290527344
Boffetto,46.15833333,9.93805556,8.720577239990234
Bolognano,42.24638889,13.95388889,4.079948425292969
Bordogna,45.95083333,9.71277778,15.45041561126709
Braulio,46.51472222,10.40361111,22.25533676147461
Bressanone,46.71503251,11.65597916,2.810208559036255
Brossasco,44.56722222,7.3525,11.247124671936035
Brunico,46.79343,11.983386,9.438746452331545
Bussento,40.1304,15.511,10.653762817382812
Bussolengo,45.47833333,10.8425,3.604074954986572
Cadarese,46.262983,8.327813,15.095087051391602
Caffaro,45.82078451,10.52706957,7.555563926696777
Cairo Montenotte,44.3938,8.2787,5.580663204193115
Calice,46.09518,8.28085,9.591267585754396
Calore,40.97333333,14.98361111,5.774668216705322
Campliccioli,46.060376,8.114612,8.289056777954102
Campo,46.221592,9.449839,4.440001487731934
Campo moro,46.2695803,9.8720987,16.059226989746094
Caneva,45.96861111,12.44138889,4.123202323913574
Canterno,43.475754,12.628657,6.092036724090576
Caoria,46.2,11.6833333,18.7224349975586
Capriati UP_CAPRIATI_1,41.476824,14.128279,2.881370782852173
Cardano UP_CARDANO_1,46.494973,11.395485,15.22175121307373
Carona,46.02139,9.78285,18.18448829650879
Caroso Borzonasca,44.42463,9.395171,16.80364990234375
Cassino,41.55333333,13.83944444,7.498892307281494
Castel giubileo,41.98833333,12.4975,3.29218864440918
Castel madama,41.973522,12.868485,8.097566604614258
Castelbello,46.628316,10.906664,5.184421062469482
Casteldelf,44.58963,7.069818,10.510860443115234
Castelletto,45.96972222,12.35138889,3.65026593208313
Castrocucco,39.9896,15.8081,14.488746643066406
Casuzze,38.07333333,13.36,10.984670639038086
Cavilla,45.919705,11.730896,11.26232624053955
Cencenighe,46.343118,11.973394,9.063867568969728
Centrale Rusca,45.529214,9.533849,2.750308990478516
Centrale Santu Miali,39.5366292,8.9544651,9.90182876586914
Centrale Uvini Monte Su Rei,39.599699,9.257067,12.707119941711426
Centrale di Airole,43.869813,7.549187,21.949127197265625
Centrale di Ampezzo,46.4277312,12.7834987,16.230741500854492
Centrale di Aymavilles,45.710407,7.253837,6.803267955780029
Centrale di Bard,45.604446,7.746439,23.562868118286133
Centrale di Bevera,43.822105,7.579253,6.822073459625244
Centrale di Canistro,41.9407659,13.4028744,14.12351417541504
Centrale di Casteldoria,40.889793,8.893944,12.479357719421388
Centrale di Contrasto Adrano,37.65189,14.805299,3.5244336128234863
Centrale di Covalou,45.7743331,7.5951308,16.101701736450195
Centrale di Faubourg,45.716877,6.945111,10.523736000061035
Centrale di Grosio,46.292,10.266,8.409053802490234
Centrale di Isollaz,45.6892628,7.71111,8.502224922180176
Centrale di Premadio - S. Giacomo,46.4862865,10.3492706,16.70468521118164
Centrale di Prestone,46.392704,9.353384,15.974981307983398
Centrale di Rezzalasco,46.348831,10.355053,7.0813889503479
Centrale di San Bernardo,46.3420087,9.3687663,13.920212745666504
Ceprano,41.54571751,13.51472855,3.3731777667999268
Ceresole - Rosone (Locana),45.435348,7.418466,16.772750854492188
Champagne,45.701758,7.2079,15.06557846069336
Chatillon,45.74472222,7.59305556,11.483251571655272
Chavonne,45.6999,7.2193,11.24158763885498
Chiavenna,46.307194,9.395236,5.426060676574707
Chievo,45.45,10.9333333,1.370375394821167
Chievolis,46.3111111,12.7891667,12.783573150634766
Chiotas entracque,44.1775758,7.4165053,23.796009063720703
Cimego UP_CIMEGO_1,45.923109,10.628414,12.786541938781738
Cividate,45.942493,10.277462,6.824496746063232
Cogolo,46.362907,10.672964,14.589393615722656
Comunacqua,41.863023,13.250095,12.223576545715332
Comunanza,42.957348,13.412282,8.002676010131836
Corenno,46.075987,9.304638,3.609651565551758
Corfino,44.13195,10.410998,2.6600284576416016
Coscile,39.809603,16.163285,5.310759544372559
Crego,46.24638889,8.33166667,12.124382019042969
Creva,46.15,8.3,7.051724433898926
Curon,46.808317,10.542652,13.91494369506836
Darfo,45.893791,10.185661,6.678338050842285
Dezzo di Scalve (derivazione Dezzo),45.983092,10.10006,20.12767791748047
Dossi,46.0299,9.984,21.97716522216797
Edison ARMISA (UP_ALTOADDA_1),46.176359,9.982129,8.460006713867188
Edison Angelo Bertini Paderno,45.6647544,9.4833148,7.21213436126709
Edison Belviso,46.160817,10.086202,6.079431056976318
Edison Carlo Esterle Cornate D'Adda,45.6540043,9.4847369,6.199814796447754
Edison Ganda,46.14055556,10.12361111,21.213054656982425
Edison Publino (UP_ALTOADDA_1),46.150244,9.818459,9.49759578704834
Edison Sonico,46.161206,10.352905,6.547311782836914
Edison VEDELLO (UP_ALTOADDA_1),46.15944,9.929995,9.871935844421388
Edison VENINA (UP_ALTOADDA_1),46.1608,9.9238,8.984618186950684
Edison ZAPPELLO (UP_ALTOADDA_1),46.159346,9.930337,9.569602966308594
Edolo UP_EDOLO_1 - Edolo Pumped Storage Hydroelectric Power Plant Italy,46.172153,10.344367,8.939425468444824
Entracque rovina UP_ETQ_ROVINA_1 - Entracque Chiotas-Piastra Pumped Storage Power Plant Italy,44.22573,7.39012,11.559398651123049
Fadalto UP_FADALTO_1,46.028439,12.300677,12.035811424255373
Farfa,42.2181,12.6929,6.4773030281066895
Farigliano,44.509523,7.912195,3.497396945953369
Farneta,44.3616,10.5816,12.721193313598633
Fedio,44.315526,7.298728,5.173445701599121
Fenestrelle,45.03594,7.049409,12.180253028869627
Fondovalle,46.376886,8.425713,10.36261749267578
Forno zoldo,46.34083333,12.20111111,19.07034492492676
Fucine,45.239148,7.375412,9.769142150878906
Furlo,43.683959,12.644054,2.1816341876983643
GALLETO,42.5427,12.7208,8.577128410339355
Gallicano,44.057349,10.4452,4.377031326293945
Gardona,46.597121,11.530879,12.988265991210938
Gargnano UP_GARGNANO_1,45.703881,10.686097,14.203834533691406
Gaudalami - Piana degli Albanesi,37.9937488,13.2882915,5.231395721435547
Gerosa,42.957348,13.412282,8.002676010131836
Goglio devero,46.260882,8.320213,11.288888931274414
Gordona,46.292293,9.365335,7.124887466430664
Gravedona,46.146389,9.300937,5.78766679763794
Gressoney,45.829667,7.82321,12.958842277526855
Grigno,46.016007,11.636892,9.650680541992188
Grosotto Boscaccia,46.283001,10.259756,8.059459686279297
Hone,45.613561,7.738513,6.924729824066162
Isola palanzano,44.437255,10.194488,7.753870964050293
Isola serafini,45.089969,9.93657,1.1207716464996338
Isolato Madesimo,46.443199,9.335009,14.072209358215332
Isolato spluga ISOLATO SPLUGA,46.443064,9.334613,13.50346851348877
Istrago,46.110463,12.880402,2.0269601345062256
Lana UP_LANA_1,46.6073775,11.1613274,2.2798116207122803
Lanzada UP_LANZADA_1,46.268585,9.877013,18.42635536193848
Lappago,46.890931,11.860181,15.97111701965332
Lasa,46.616614,10.700159,2.707461357116699
Lazzaro,43.69076,12.812658,6.265003681182861
Le piane,44.142257,11.163814,7.711065769195557
Levane,43.552147,11.588433,2.6243231296539307
Ligonchio ozola,44.316254,10.341393,12.368773460388184
Lovero,46.23777778,10.21527778,16.367021560668945
Malga ciapela,46.43392,11.976792,14.79589557647705
Mallero,46.168995,9.869149,4.145018577575684
Mandela,42.025524,12.996287,12.906411170959473
Mantelera,45.929593,10.308663,13.465842247009276
Marlengo,46.65261772,11.14545822,4.862593650817871
Masino,46.164292,9.644944,1.8544546365737915
Mazzunno ,45.91083333,10.12388889,24.772300720214844
Maën Cignana,45.868104,7.6147242,12.95146369934082
Maën Perreres,45.8717692,7.6067958,22.91853904724121
Meduno,46.2180556,12.7980556,7.635941982269287
Mese UP_MESE_1,46.304613,9.376503,10.99913215637207
Molare,44.613917,8.606257,4.451699256896973
Moline,46.058609,11.786595,12.178226470947266
Monastero,46.171791,9.430139,1.2097244262695312
Montelungo,41.405919,13.985517,4.776793003082275
Montjovet,45.707963,7.67411,6.476665496826172
Montorio UP_MONTORIO_1,42.58555556,13.70888889,8.167989730834961
Morasco,46.376886,8.425713,10.36261749267578
Morino,41.87305556,13.45583333,9.154990196228027
Mucone,39.4716,16.4056,20.95267868041992
Muschioso,44.295555,10.570198,5.648621082305908
Muzzone Coghinas ,40.719766,9.101024,2.8033366203308105
Naturno UP_CNTRLNTRNO_11,46.651148,10.993403,10.210162162780762
Nazzano,42.20055556,12.61138889,2.5105092525482178
Nembia,46.076602,10.908474,8.356797218322754
Nove,45.9766667,12.3033333,2.175956010818481
Nus,45.7395178,7.4459142,10.838152885437012
Orichella Timpagrande Calusia UP_ORTICA_1,39.17553,16.780345,20.586959838867188
Orte,42.517131,12.523069,10.253277778625488
Ozieri Monte Lerno,40.585962,9.001224,8.967735290527344
Paisco,46.030996,10.345862,6.090351581573486
Palazzo,39.799101,15.90748,18.97128868103028
Palazzolo sull'Oglio,45.61888889,9.90111111,4.1250529289245605
Pallanzeno,46.04202073,8.259487152,4.3426055908203125
Pantano d'avio,46.178199,10.329159,4.736392498016357
"Paterno' c,le",40.2333333,15.2333333,6.928210258483887
Pedesina,46.08189,9.549444,20.434064865112305
Pelos,46.5041667,12.4736111,9.49317455291748
Penna,43.417645,11.723338,10.697629928588867
Perreres,45.876066,7.624305,12.086010932922363
Pescara,42.213736,13.913504,4.432285785675049
Pian della rocca,43.978948,10.545703,5.47898530960083
Piedimulera,46.02408493,8.258972168,9.963563919067385
Pietraporzio,44.343724,7.035322,12.922731399536133
Pieve vergonte,46.012976,8.260816,7.494575977325439
Pizzone,41.672525,14.036415,11.864143371582031
Pont st. martin,45.595361,7.794514,2.4961535930633545
Pont ventoux,45.141299,6.962786,18.70229721069336
Ponte Vizzà,44.250215,9.679784,13.899110794067385
Ponte annibale,41.099714,14.220126,1.779404878616333
Ponte gardena,46.597121,11.530879,12.988265991210938
Ponte malon,46.5555556,12.4380556,12.420467376708984
Ponte marm,46.376886,8.425713,10.36261749267578
Pontecorvo,41.382916,13.686911,10.123798370361328
"Poschiavino c,le",46.203898,10.133854,5.032805442810059
Pracomune,46.5478079,11.0070771,11.523902893066406
Prati vizze,46.85,11.3833333,18.65829467773437
Predazzo,46.308814,11.599686,4.109560966491699
Premesa,46.56662,11.56098,6.778189182281494
Presenzano UP_PRESENZAN_1 - Presenzano (Domenico Cimarosa) Pumped Storage Power Plant Italy,41.380906,14.09146,5.3729448318481445
Provvidenza UP_PROVVIDEN_1,42.511133,13.410606,14.93158721923828
Quart,45.740261,7.466604,7.713799953460693
Quero,45.921807,11.9315,5.140485763549805
Quincinetto,45.56296,7.807315,7.949286937713623
Radicone Troina,37.829642,14.576644,12.739229202270508
Regoledo,46.135091,9.551643,1.5394864082336426
Resio,45.925692,10.250862,2.5130093097686768
Rio pusteria,46.8333333,11.6166667,15.019105911254885
Rio riva,46.920333,11.954483,11.50296688079834
Riva garda nuovo,45.883103,10.837735,13.567793846130373
Roncovalgrande UP_RONCOVALG_1PS - Roncovalgrande Pumped Storage Power Plant Italy,46.067588,8.731877,12.499345779418944
Rovesca,46.060376,8.114612,8.289056777954102
"S,silvestro",46.149311,11.789193,10.267205238342283
S. floriano UP_SFLORIANO_2,46.290466,11.245401,7.79771089553833
S.fiorano,46.049856,10.351457,5.273016452789307
S.massenza - Vezzano molveno UP_S MASS CL_1,46.067653,10.983605,8.952345848083496
Sagittario nuovo,41.99383,13.803905,12.976396560668944
Saint-Clair,45.7425728,7.6221486,11.58553409576416
Salbertrand - Chiomonte,45.12167,6.979784,14.271820068359377
Salisano,42.259328,12.745778,14.226943969726562
Salsominore,44.643854,9.496569,8.431355476379395
Sampeyre,44.579631,7.184521,10.093998908996582
San Michele Caroso Borzonasca,44.42463,9.395171,16.80364990234375
Sanfront,44.647034,7.321022,3.44157338142395
Sarentino,46.64352,11.355774,7.345864772796631
Satriano,38.666883,16.481205,13.671250343322754
Saviner,46.43392,11.976792,14.79589557647705
Seled glorenza SELED GLORENZA,46.6879187,10.5465492,5.827301979064941
Sendren,45.775066,7.826612,7.5533342361450195
Signayes,45.73736,7.316601,3.4627363681793213
Sistema Alto Flumendosa Bau Muggeris Sa Teula,39.9622222,9.5055556,12.485841751098633
Somplago UP_TAGLIAMENTO_1,46.343237,13.067161,10.680761337280272
Sondrio UP_SONDRIO_1,46.173,9.8876,7.599549770355225
Sorio nuova,45.44213,12.34014,2.270707607269287
Sospirolo,46.1394444,12.0677778,8.721232414245605
Soverzene UP_SOVERZENE_1,46.201029,12.302334,11.201732635498049
Sperando,44.027651,10.765107,11.718950271606444
Spigno Monferrato,44.539551,8.338876,9.855141639709473
Stanga,46.1111111,12.1002778,5.130232334136963
Stazzona,46.203898,10.133854,5.032805442810059
Storo,45.84924956,10.58022022,9.90321445465088
Suio,41.240815,13.932818,5.837982177734375
Suviana,44.170457,11.088812,9.71613311767578
Taio S.Giustina Mezzocorona UP_NOCE_1,46.326132,11.063244,8.685627937316895
Taloro (Gusana - Cucchinadorza - Benzone) UP_TALORO1_1 - Tumuele Baddu Ozzana,40.127148,9.140644,7.597458362579346
Tanagro,40.543612,15.44886,7.949950218200684
Teglia,44.375151,9.878882,3.5399484634399414
Telessio - Eugio - Rosone,45.433313,7.417422,19.56890869140625
Tirso,40.032651,8.896729,7.02571964263916
Torbole UP_TORBOLE_1,45.882608,10.882742,8.50687026977539
Tornavento,45.59677,8.754735,1.9506431818008425
Torrent,45.682972,8.708733,3.296239852905273
Torrite,44.12125,10.404598,3.4482879638671875
Triano,42.360941,14.138007,2.375849962234497
Tusciano,40.657211,15.02305,12.71135425567627
UP_SGIACOMO_3,42.553001,13.556,20.24285888671875
Val noana,46.149311,11.789193,10.267205238342283
Valpelline UP_VALPELLIN_1,45.825196,7.333163,14.991697311401367
Vaprio D'Adda,45.576941,9.535214,3.981370687484741
Varzo,46.20668,8.252412,7.8415374755859375
Venamartello,42.769944,13.410185,14.45541763305664
Venaus UP_VENAUS_1 (Venasco),45.161887,7.008396,10.874556541442873
Verampio,46.210781,8.320614,7.526350975036621
Verres,45.666562,7.689111,4.336014270782471
Villa,41.961334,14.342717,16.27275848388672
Villa rinaldi,46.0347222,12.6791667,1.3959391117095947
Vinadio,44.309025,7.176025,12.828690528869627
"Vizzola t,",45.6317,8.6865,5.795792102813721
Vobarno,45.640087,10.503473,4.854790687561035
Volturno,41.625824,14.089016,2.939402341842652
Zevio,45.372086,11.129292,1.530229926109314
Zuino,45.712165,7.882814,10.701685905456545
HC LUMBARDHI 1 2 Belaja DECANI,42.58880928,20.17900745,19.195384979248047
Ujmani,42.940311,20.652053,7.368037700653076
Kegums hpp Kegums HPP - Kegums Hydroelectric Power Plant Latvia,56.7405,24.7113,1.2260916233062744
Plavinas hpp Plavinas HPP - Plavinas Hydroelectric Power Plant Latvia,56.583,25.2394,2.378117322921753
Riga HPP,56.94600412,24.10589218,2.5596933364868164
Kaunohe Kauno KHE------HA1 - Kaunas Hydroelectric Power Plant Lithuania,54.87414,24.0,1.66584575176239
Kruonis & extension Kruonio KHAE-----HA1 - Kruonis Pumped Storage Hydroelectric Power Plant Lithuania,54.797866,24.248169,3.321119546890259
Hydropower Plant CHE-Costesti,47.8381,27.2246,2.531516790390014
Hydropower Plant Dubasari,47.2778,29.123,1.881336688995361
HE Glava Zete,42.6,18.98,13.452271461486816
Perucica Hydroelectric Power Plant Montenegro - Perucica Hydroelectric Power Plant Montenegro,42.6718,18.9951,12.855632781982422
Piva_G1 - Piva (Mratinje) Hydroelectric Power Plant Montenegro,43.272999,18.841999,25.10414123535156
Globocica (Crn Drim) Hydroelectric Power Plant Macedonia,41.3371,20.6347,18.462621688842773
Kalimantsi Hydroelectric Power Plant Macedonia - Kalimantsi Hydroelectric Power Plant Macedonia,41.97115,22.57809,13.044219970703123
Kozjak Hydroelectric Power Plant Macedonia - Kozjak Hydroelectric Power Plant Macedonia,41.8792,21.1921,14.19187355041504
Matka Hydroelectric Power Plant Macedonia - Matka Hydroelectric Power Plant Macedonia,41.9528,21.2982,19.819469451904297
Raven Hydroelectric Power Plant Macedonia - Raven Hydroelectric Power Plant Macedonia,41.7791,20.8563,5.43219518661499
Spilje Hydroelectric Power Plant Macedonia,41.4936,20.5054,7.722288131713867
Sveta Peka Hydroelectric Power Plant Macedonia - Sveta Peka Hydroelectric Power Plant Macedonia,41.9249,21.2647,24.50294685363769
TIKVES G1 - Tikves Hydroelectric Power Plant Macedonia,41.404999,21.936001,14.205690383911133
VRUTOK G1 -  Mavrovo Vrutok Hydroelectric Power Plant Macedonia,41.771,20.84,11.334031105041504
Vrben Hydroelectric Power Plant Macedonia - Vrben Hydroelectric Power Plant Macedonia,41.7166,20.7219,15.830387115478516
Aall-Ulefoss,59.281502,9.253044,4.967258930206299
Adamselv,70.409578,26.701878,9.92278289794922
Alta krv,69.717916,23.795677,11.998614311218262
Andåsfossen,65.822425,13.259879,10.90086555480957
Askerudfoss,60.20311,10.342111,7.80889368057251
Aunfoss,64.610022,12.578041,4.285824298858643
Aura,62.664258,8.514969,17.613140106201172
Aurland I,60.8525,7.300704,25.360397338867188
Aurland II H,60.805201,7.377305,16.675430297851562
Aurland II L,60.804331,7.378572,16.70041275024414
Aurland III,60.798131,7.571407,14.919665336608888
Aurland IV (Vangen),60.901828,7.178971,13.170162200927734
Aurland V (Reppa),60.804002,7.35285,20.87433815002441
Bagn,60.827132,9.548789,11.339029312133787
Bardufoss,69.043788,18.589681,5.052295684814453
Befring,61.609102,6.635326,7.884780406951904
Begna,60.202559,10.249582,4.57907247543335
Bele,63.017618,8.527644,9.968850135803224
Bergerfoss,60.227748,10.376135,7.0212507247924805
Bergsbotn,69.433207,17.483038,2.663362979888916
Bergselva,69.299368,19.985893,9.947296142578123
Bergstø,59.906073,6.497474,12.581321716308594
Berild,62.447595,7.487445,6.643155574798584
Berlifoss,58.945844,8.482479,6.4693379402160645
Bingsfoss,59.989971,11.264708,3.3785269260406494
Bjelland,58.405782,7.523531,8.413262367248535
Bjerka,66.062707,13.997822,10.092731475830078
Bjordalen,59.674243,8.558921,6.13127326965332
Bjølvo,60.440065,6.406111,22.8280086517334
Bjørdal,62.134077,6.298791,3.088252782821656
Bjørgelva,69.144622,17.945353,10.024466514587402
Bjørkåsen,68.327861,16.786002,4.49025297164917
Bjørndalen,61.821713,5.799066,10.98195743560791
Bjørndalselva,61.5096,6.287082,6.8680830001831055
Blådalselva,60.764629,5.385733,6.592024326324463
Blåfalli III H,59.874602,6.073856,13.480728149414062
Blåfalli III L,59.874725,6.074131,13.675463676452637
Blåfalli IV,59.930933,6.197613,12.67408561706543
Blåfalli V,59.919097,6.187562,10.656852722167969
Blåfalli Vik,59.844023,5.994117,16.89445686340332
Boen Foss,58.245048,8.1401,7.667263984680176
Bogna,64.228736,12.025878,8.506656646728516
Borgund,61.061044,7.822617,13.438694953918455
Borregaard,59.276365,11.129869,4.185392379760742
Braskereidfoss,60.706254,11.791752,3.89346981048584
Bratsberg,63.357887,10.447937,10.169713020324709
Brattingfoss,64.046234,11.082015,7.315639019012451
Brattset,62.802952,10.017076,11.50151252746582
Breiava,59.159053,6.612866,8.721981048583984
Breivikelva,67.054756,14.478863,10.24641227722168
Brokke,59.12481,7.5063,8.068702697753906
Brulandsfoss,61.435682,5.915368,8.784459114074707
Brunstad,62.284418,6.67713,8.019094467163086
Bruvollelva,64.266277,12.294282,5.126667022705078
Brødbølfoss,60.033452,12.371142,2.5554957389831543
Byafossen,64.038142,11.552689,4.849921703338623
Byrkjelo,61.733639,6.508575,2.4151179790496826
Byrte,59.496878,7.829058,15.240942001342772
Båtsvatn,68.090128,17.716649,5.440252780914307
Bøhnsdalen,60.286995,11.194128,5.865328788757324
Bøylefoss,58.596229,8.716276,6.085365295410156
Daja,67.082708,16.055171,5.160149574279785
Dale (Volda),62.063379,5.926892,8.892441749572754
Dale II,60.581955,5.823857,21.551328659057617
Dalelva,60.12831,6.233554,8.492498397827148
Dalsfos,58.96678,9.313175,6.708343982696533
Dalvatn,59.690494,6.570213,12.053521156311035
Dauremål,61.829094,5.78213,8.366601943969727
Deveggåe,60.251962,8.83648,4.44467830657959
Dittielva,68.656321,18.784474,5.410294055938721
Dividalen,68.875556,19.560557,7.674914836883545
Djupdal,59.939501,9.339152,8.389559745788574
Dokka,60.810641,10.135008,7.316349983215332
Dokkelva,62.679671,8.137279,9.501272201538086
Dragefossen,67.023919,15.321611,9.838634490966797
Driva,62.627288,8.893746,21.48237419128418
Duge,59.128899,6.892177,8.102179527282715
Duvedalen,60.960885,5.48906,11.274459838867188
Dversetelva,67.161093,15.405711,8.208321571350098
Dynjanfoss,58.951934,8.394045,16.416019439697266
Dyrdalselva,61.116097,6.01307,15.347541809082031
Dyrnesli,61.204094,5.811217,11.949360847473145
Døla,63.951327,11.65664,6.06757402420044
Døvikfoss,59.885624,9.909036,4.048840522766113
Egge,61.683966,6.521126,7.751640796661377
Eid,60.720717,9.713376,5.36810827255249
Eidefossen,61.8037,9.303697,7.157828330993652
Eidsdal,62.225603,7.143688,9.695287704467772
Eidsfoss,59.297123,9.219933,7.657634258270264
Eidsfossen,61.756715,6.245702,6.4934186935424805
Eikelandsosen,60.255341,5.74083,15.61631679534912
Einunna,62.231331,10.342027,5.237357139587402
Eiriksdal,61.238651,6.159359,21.169553756713867
Ekkjestølen,59.791456,6.767096,9.268978118896484
Eldao,61.46122,7.03845,5.449793338775635
Eldrevatn,61.01993,8.127023,3.5530354976654053
Ellenelva,69.380694,19.644744,3.81246018409729
Embretsfoss,59.902164,9.925332,5.881558418273926
Engeset,62.264103,6.860074,6.959040641784668
Evanger,60.662252,6.118739,10.495227813720703
Evenstad,58.543204,8.673748,6.4001054763793945
Fagerli,67.116045,16.067266,5.684870719909668
Fagervollan,66.375658,13.657311,14.220614433288574
Fall,60.678333,10.352728,2.1065008640289307
Faslefoss,60.958423,9.300065,6.393187046051025
Fausa II,62.357548,6.894803,12.768003463745115
Fellesanlegget Kykkelsrud-Fossumfoss,59.579898,11.100725,4.340829849243164
Finndøla,59.187073,8.039687,7.556532859802246
Finså,58.65991,6.698752,8.49000072479248
Fiskløysa,64.465473,14.03276,2.6641323566436768
Fivelandselva,59.674717,6.418735,11.872620582580566
Fjellet,59.400865,9.550383,9.619418144226074
Fjelna,63.199304,9.006507,3.812652349472046
Fjone,59.21679,8.451892,6.908549308776856
Fjæremsfoss,63.321965,10.436126,7.292684555053711
Flatenfoss 2,58.629922,8.688104,3.6651980876922607
Flatenfoss 3,58.629862,8.687982,3.4495558738708496
Flittig,59.323002,9.53647,8.403313636779785
Flørli,59.010982,6.445127,18.96517562866211
Follafoss,63.986371,11.094741,9.33813762664795
Follsjå,59.659779,9.213667,4.773708343505859
Forneselva,69.596644,19.903016,2.3137364387512207
Forsanvatn,67.950665,15.654038,2.6647863388061523
Forsland,66.074163,13.047689,5.369757175445557
Forså,66.951346,14.2253,5.503855228424072
Fossan,63.027127,11.70028,3.802755117416382
Fossan,68.662854,17.697002,3.802755117416382
Fossbråten,60.976724,9.295138,10.563865661621094
Fossheim,61.579621,6.502653,13.27034854888916
Fossmark,58.976905,6.24297,9.068942070007324
Fossmark,60.51216,5.725404,9.068942070007324
Framruste,61.937434,7.886853,12.750900268554688
Fritzøe,59.052673,10.018279,4.911399841308594
Frøland,60.384643,5.806852,12.646470069885254
Frøystul,59.824603,8.345011,4.823063850402832
Funna,63.440244,11.742539,7.260237693786621
Funnefoss,60.167127,11.529376,2.68954873085022
Furegardane,60.636372,6.17251,17.782669067382812
Furset,62.282863,6.884733,8.415434837341309
Fykanvannet,66.796795,14.000749,13.131735801696776
Gamlebrofoss,59.657714,9.651615,3.5883421897888184
Gandvik,70.014732,29.115253,8.573546409606934
Gaudøla,62.685993,8.416823,3.714089393615722
Gaula,62.802846,11.370119,5.026771545410156
Gausbu,59.367561,7.892581,5.623295307159424
Gausvik I,68.608998,16.493108,4.068175315856934
Geithusfoss,59.928859,9.963443,3.6544406414031982
Geitåni,60.649557,6.007385,17.755252838134766
Gire,60.501992,9.136954,11.582465171813965
Gisnafallet,62.694766,9.941145,5.104968070983887
Gjerdsvika,62.256071,5.583926,3.5739262104034424
Gjesdal,61.487222,6.120527,4.34801197052002
Gjetingsdalen,60.138493,6.240125,7.632791996002197
Gjuva,60.929668,8.422985,8.881150245666504
Gjønaelva,60.260097,5.865826,9.930264472961426
Glomfjord,66.796875,14.000939,14.422040939331056
Gosland,60.608276,6.344046,5.833717346191406
Govddesåga,66.923648,14.393596,8.51678466796875
Grana,62.915995,9.680167,6.624790668487549
Gravfoss I,59.931023,9.945466,6.222105503082275
Gravfoss II,59.929421,9.946417,6.411929130554199
Gresslifoss,63.053018,11.489542,8.129664421081543
Grunnåi,59.517958,8.671041,16.219635009765625
Grytendal,65.184825,12.798047,11.222983360290527
Grytneselva,62.723486,8.114792,10.56209659576416
Gryto,60.414314,6.25049,10.72577953338623
Grytten,62.500671,7.776139,21.737756729125977
Grytåga,65.803544,12.72901,7.840883731842041
Gråsjø,62.933703,9.125257,4.696143627166748
Grøa,62.639218,8.730667,17.839853286743164
Grønsdal,60.44001,5.860706,13.880064010620115
Grønvollfoss,59.658549,9.207749,6.47148323059082
Grøslandselva,60.417901,9.375481,8.164920806884766
Grøvla,61.499777,5.975762,6.718846797943115
Gudåa,63.438872,11.616029,7.138885021209717
Hafslund,59.274985,11.129381,4.314164161682129
Hakavik,59.624806,9.953291,7.607489109039307
Hammeren,59.996669,10.749974,5.391653537750244
Hanefoss,58.530183,8.334636,6.273981094360352
Hardeland H,59.657666,6.096468,12.066279411315918
Hardeland K,59.657561,6.096339,13.113961219787598
Harpefossen,61.581624,9.842172,9.539510726928713
Hatlestad,61.384128,6.737623,5.736988544464111
Haugafossen,60.28032,6.264236,14.708970069885254
Haugfoss,59.913781,9.885792,6.437011241912842
Haukeli,59.732555,7.544277,17.70009994506836
Haukland,58.465032,6.544322,5.905241966247559
Haukrei,59.204847,7.835123,7.030590534210205
Heggmoen,67.355703,14.8518,5.26826810836792
Hegsetfoss,63.164753,11.231371,10.64200496673584
Hekni,58.996124,7.54686,6.838064193725586
Helganes,59.499145,6.57497,13.989781379699709
Helgheim,61.561844,6.403492,5.613073348999023
Helgåa,62.061383,5.752021,8.232582092285156
Hellandsfoss,60.83077,5.881864,13.003195762634276
Hellandsfossen,60.832358,5.883056,13.367618560791016
Hellefoss,59.787085,9.900813,3.6847987174987793
Hellifossen,65.066945,12.3519,3.3279569149017334
Hemsil I,60.802417,8.638246,10.834342956542969
Hemsil II,60.705018,8.969284,14.144332885742188
Hensfoss,60.208303,10.239006,5.782066345214844
Herand,60.346716,6.404039,7.972385883331299
Herje,62.668789,7.532345,4.70940637588501
Herva,61.565819,7.86585,9.182161331176758
Hesjeberg,68.730314,17.470616,4.97155237197876
Hinøgla,61.495152,9.278089,7.354656219482422
Hisvatn,58.609254,6.895574,8.385636329650879
Hjartdøla,59.608253,8.713219,14.986355781555176
Hjelmeland,59.223845,6.219298,8.5642671585083
Hodnaberg,60.55784,6.211286,5.940511226654053
Hofsfoss,60.185024,10.241127,4.515194416046143
Hogga,59.310502,9.045155,10.255166053771973
Hogstad,59.321348,9.657249,5.574874401092529
Hol I (Urunda),60.62675,8.181679,9.779918670654297
Hol I (Votna),60.626677,8.182144,10.28079891204834
Hol II,60.611234,8.26258,10.204522132873535
Hol III,60.58293,8.404554,11.215105056762695
Holen,61.355592,7.086449,7.94970178604126
Holen,59.346,7.2493,7.94970178604126
Holen I-II,59.353128,7.247817,14.64034652709961
Holen III,59.353127,7.247782,14.63830280303955
Holmen,60.849199,6.722972,23.63849830627441
Holsen,61.419767,6.158174,9.281161308288574
Hommelfoss,60.900223,5.617947,17.084243774414062
Hopland,61.863325,6.321515,7.933550834655762
Hopselva,60.31221,5.669692,10.455326080322266
Hovatn,58.983853,7.67232,14.873887062072754
Hove,61.066514,6.589224,15.081340789794922
Hovland,61.593455,5.443195,9.749109268188477
Hunderfossen,61.219683,10.439034,4.074442386627197
Hunsfoss,58.265174,7.966342,3.797250032424927
Hylen,59.557855,6.602344,25.679378509521484
Hynna,63.057755,11.43934,4.002292156219482
Håen,63.113494,10.478311,4.2323408126831055
Håkvik,68.403304,17.42153,12.62635612487793
Hålandsfoss,61.330877,5.413983,7.114782810211182
Håvardsvatn,60.10165,6.913308,7.516332149505615
Håverstad,58.505942,7.417104,10.626086235046388
Høgefoss,58.951596,8.517097,4.597712516784668
Hønefoss,60.169989,10.25448,3.839296817779541
Høyanger K5A,61.21888,6.063321,12.864052772521973
Høyanger K5B,61.218822,6.063635,12.437620162963867
Høylandsfoss,58.281282,6.815432,9.511542320251465
Ildgrubfossen,66.300896,14.350961,5.404842376708984
Imsland,59.478233,5.990793,7.368329524993896
Innset,68.659576,18.824753,12.240134239196776
Istad,62.805201,7.700295,4.988757133483887
Iveland,58.390377,7.894692,9.985199928283691
Jordal,62.754863,8.315464,7.93299674987793
Jordal,61.334108,6.687803,7.93299674987793
Jordalen 2,60.869995,6.724412,9.933197975158691
Jostedal,61.520817,7.308742,15.136073112487791
Jukla,60.191554,6.389272,15.794415473937988
Julfoss,63.41285,10.944374,5.161190509796143
Julskaret,63.140481,10.968042,3.743297576904297
Juvfossen,62.246257,6.890173,6.269391536712647
Jørundland,58.906297,8.22607,12.946653366088867
Jøssang,59.002831,6.081567,12.617621421813965
Jøssingfjord,58.326221,6.351906,13.251946449279783
Kaggefoss,59.947544,9.934564,8.178190231323242
Kaldestad,60.364247,6.150254,9.238390922546388
Kaldestad,60.554265,6.029858,9.238390922546388
Kaldsåni,59.540832,7.33328,3.883026599884033
Kalvedalen,61.258271,8.757071,11.046229362487791
Kandal,61.671548,6.379287,8.983970642089844
Kangsliåga,66.148018,13.850365,7.144030570983887
Kanndalen,62.675889,8.157595,12.949015617370604
Kaupanger 3,61.198121,7.224067,2.908652782440185
Kildalen,69.665984,21.10666,5.756277561187744
Kinnforsen,66.127928,13.61361,8.589797019958496
Kinso,60.351842,6.757931,15.747220039367676
Kiste,59.242816,9.811942,4.34130334854126
Kjela,59.736731,7.434555,6.445879459381104
Kjeldalselva,69.290812,19.910354,6.687527179718018
Kjensvatn,66.057335,14.243865,9.219001770019531
Kjosfoss,60.747019,7.134844,16.71804428100586
Kjøsnesfjorden,61.511812,6.60963,31.472963333129883
Kleiva,59.739328,6.518956,12.702720642089844
Klosterfoss,59.198381,9.609542,2.379794120788574
Kløvtveit,60.976254,5.280915,15.41179084777832
Knutfoss,64.522753,12.426384,6.8672380447387695
Kobbelv,67.621621,16.007076,20.63731002807617
Kobbholm,69.762373,30.706416,5.890168190002441
Kolsvik,65.209196,12.796868,13.68160915374756
Kongsfjord I,70.598729,29.057905,1.7137988805770874
Kongsfoss,59.89513,9.911384,5.225094318389893
Kongsvinger,60.202822,11.892736,2.788287401199341
Kopa,62.033469,6.39558,6.221306324005127
Krogstadelva,68.884472,18.420259,5.783054828643799
Krokevatn,60.983711,5.698632,4.462307929992676
Kuli,58.716285,6.632243,9.06631088256836
Kulu,60.616102,8.534165,5.78197717666626
Kupe,61.639534,5.098009,9.678420066833496
Kuråsfoss,62.673965,11.454045,2.999488592147827
Kvanndal,59.658147,6.985079,17.269786834716797
Kvannvatn,66.417748,14.522988,5.239513397216797
Kvassteinåga,66.127891,13.572895,7.233828067779541
Kvemma,61.042128,7.767102,14.713812828063965
Kvilldal,59.526995,6.658841,22.4956111907959
Kvinen,58.935618,7.088094,8.031434059143066
Kvitno,60.174717,6.546339,14.066923141479492
Kvittingen,60.464284,5.915178,12.001641273498535
Kvænangsbotn,69.720002,22.057216,7.126976013183594
Kåven,70.117984,22.796744,15.00889015197754
Lakshola,67.451702,15.742424,14.73732852935791
Lang-Sima,60.507421,7.140704,25.24155235290528
Langdalselva,70.026561,22.099499,5.624475002288818
Langedal,61.563993,5.572292,7.660465717315674
Langedalen,62.072866,6.799832,5.084844589233398
Langfjord,65.375988,12.699796,8.367512702941895
Langfoss,58.901719,9.337977,8.309648513793945
Langvatn,66.336842,14.166999,11.618290901184082
Lassajavrri,69.658857,22.217542,6.605971813201904
Laudal,58.244885,7.515696,11.26852321624756
Lavkajohka,69.235588,20.523863,6.0379638671875
Leikanger,61.204764,6.708265,17.433320999145508
Leinafoss,60.831726,7.118358,13.149487495422363
Leirdøla,61.4371,7.23479,11.010096549987791
Leirelva,66.044449,14.063713,12.53594970703125
Leirfossene,63.372365,10.404037,5.790051460266113
Leiro,60.406628,7.376671,6.307637691497803
Leiråa,65.327052,12.918319,7.341602325439453
Leknesvatn,61.434683,5.35534,7.923131465911865
Lindland,58.358826,6.300171,9.345035552978516
Linvasselv,64.652493,13.786226,7.200732231140137
Lio,59.465161,7.932223,21.92898368835449
Lislevatn,58.57946,7.967914,7.217592239379883
Litj-Hena,63.04971,11.487127,6.7843852043151855
Litjfossen,62.662417,10.139673,8.599526405334473
Litledalen,59.663476,6.065529,11.200636863708496
Logna,58.763639,7.51007,10.293007850646973
Lomen,61.140411,8.881986,10.507074356079102
Lomi,67.120911,16.120824,6.853890419006348
Lutufallet,61.065634,12.581802,3.3168492317199707
Lya,60.664311,8.680959,7.376059532165527
Lysebotn 2,59.065338,6.632272,13.724308967590332
Lysvatn,66.875106,13.84261,8.788036346435547
Løpet,61.163873,11.456755,3.4246726036071777
Matre H,60.870058,5.596857,22.8940544128418
Matre M,60.872581,5.594089,19.87723731994629
Mattisfoss,69.916531,23.013535,5.871057987213135
Maudal,58.764683,6.36841,12.134381294250488
Mauranger,60.127577,6.337427,18.42933464050293
Mel,61.350357,6.573761,23.55161476135254
Mela,64.254483,12.545905,4.336320877075195
Melkefoss,69.399382,29.7873,1.8045222759246824
Meråker,63.407563,11.776733,7.311196327209473
Mesna,61.115301,10.454126,4.051677227020264
Middøla,59.929771,8.748934,8.34819221496582
Midtlæger,59.833807,6.9935,6.8108439445495605
Midtre Tessa,61.842305,8.960191,10.500433921813965
Moflåt,59.883233,8.684686,12.93467140197754
Mosbakka,59.639354,6.298696,7.436638832092285
Mosvik,63.726499,10.865013,13.023950576782228
Muoidejohka,66.811343,14.644825,6.003775596618652
Mydalen,59.715441,8.699349,8.623866081237793
Myklebost,61.524872,6.35634,5.919645309448242
Mykstufoss,60.050395,9.19932,7.507797718048096
Myster,60.738619,5.806827,8.08403205871582
Mågeli,60.132949,6.628084,13.450031280517578
Målset,60.978203,6.516092,4.7552257
Mår,59.885318,8.674014,13.887519
Mølleelva,69.950044,23.06281,7.8573065
Mørre,63.927744,10.233434,19.770681
Naddvik,61.176752,7.626967,28.37406
Nea,63.032064,11.703242,3.9086218
Nedalsfoss,62.957739,12.098549,5.5056343
Nedre Bersåvatn,60.168571,6.671918,4.8686795
Nedre Fiskumfoss,64.543207,12.454644,8.122016
Nedre Leiråga,66.441674,13.86279,4.2586155
Nedre Markevatn,61.462957,5.322115,6.37879
Nedre Nea,63.155303,11.235879,15.861519
Nedre Otta,61.792927,9.383549,22.774696
Nedre Porsa,70.401409,23.627292,9.4125
Nedre Røssåga,66.052027,13.774634,4.5716143
Nedre Svultingen,61.154509,5.350066,10.22717
Nedre Tessa 1,61.846025,8.96078,7.985496
Nedre Tessa 2,61.846032,8.961143,7.992479
Nedre Vinstra,61.564563,9.792926,11.123461
Nes,60.603391,9.064691,11.17558
Neselva,61.694729,6.373533,6.1626987
Nessane,61.13531,6.272163,8.261029
Neverdalsåga,66.822241,13.980626,8.4268465
Niingen,68.53702,17.028627,8.386537
Nomeland,58.356703,7.904827,5.0889373
Norddalen,68.174304,17.919127,3.0519364
Nordvik,62.869929,8.622095,4.144457
Nore I,60.267223,8.959338,11.8534155
Nore II,60.238241,9.00084,9.1451435
Novle,59.831861,6.881373,15.642191
Nybrufoss,59.667538,9.652135,3.0919118
Nybuelvi,60.553377,9.183276,5.760031
Nye Suvdøla,59.1495,8.815056,5.4025044
Nye Verma,62.345564,8.046513,11.105585
Nygard,60.892783,6.065015,10.276413
Nygård,68.475637,17.626088,12.2099495
Nyset,61.163283,7.750692,8.527995
Nørlandselva,60.822291,5.381364,3.7904198
Offervann,70.360458,26.891966,5.6832576
Oftedal I,58.542325,6.734958,6.3132267
Oftedal II,58.542997,6.709784,9.727338
Oksebotn,60.738549,6.261966,13.553103
Oksla,60.125942,6.568911,23.247421
Oldereid,67.129685,14.955136,9.153893
Oltedal,58.828059,6.055008,9.605618
Oltesvik,58.851993,6.123135,6.385122
Ormsetfoss,63.84787,10.682239,12.431502
Osa,61.237602,11.517878,3.4226282
Osbu,62.508165,8.473322,4.642083
Osdalen,61.992549,6.358703,15.687558
Osen,58.662373,6.617867,9.15657
Osen,59.356167,8.177044,9.15657
Osfallet,61.201663,11.506418,4.825302
Osteren,69.311689,17.166028,10.033792
Pikerfoss,59.721147,9.594435,2.789171
Pålsbu,60.433067,8.734342,2.3491402
Ramfoss,60.084174,9.816174,7.8479643
Rana,66.294966,14.270422,8.206975
Rasdalen,60.636289,5.963677,13.58743
Raukforsen,67.671732,16.060866,7.5959764
Refsdal,61.021375,6.567661,11.2516165
Reinfossen,66.349608,14.342784,6.890089
Reingardsåga,66.441763,14.259013,3.626688
Reinset,62.804585,8.502891,3.682836
Reinskar,66.944213,14.122051,8.904863
Reinåga,66.037574,13.854985,4.700343
Rekvatn,67.824218,15.993795,4.519632
Rendalen,61.811303,11.114915,6.686078
Reppa,66.645942,13.560479,5.16967
Repvåg,70.773547,25.616486,5.4021344
Riksheimdal,62.340278,6.531834,14.03404
Ringdal,62.08921,6.853629,13.980087
Ringedalen,60.115822,6.625288,16.740498
Rognsfossen,60.632487,6.431703,4.787786
Romøyri,61.285947,6.684627,10.229909
Rongkleiv,61.664138,5.912952,9.495261
Roppa,61.240405,10.058534,6.375442
Roskrepp,59.026674,7.089143,8.160208
Rosten,61.860793,9.408787,12.64543
Rottenvik,69.600545,20.27112,4.647897
Rusdalsåni,58.588596,6.506877,10.74778
Rygene,58.406049,8.636195,4.681
Rånåsfoss,60.027536,11.323332,4.1234183
Råssåfoss,62.827032,8.701812,12.054754
Rødberg,60.263113,8.976154,13.459215
Rødne,59.562936,5.871519,6.265052
Røldal,59.818538,6.818576,15.4739685
Røneid,61.417,7.257286,12.24665
Røstefoss,62.507535,11.263389,3.165786
Røyrvikfoss,64.886275,13.562079,5.239595
Sage,61.482112,7.440386,12.456931
Sagefossen,61.614778,5.678216,10.340399
Sagelva,63.462784,11.512801,17.301079
Sagevikelv,61.361474,5.561724,14.1729
Sagfossen,67.904601,15.860028,3.240877
Sagnfossen,61.161438,12.44547,2.7678065
Saksenvik,67.110578,15.462681,6.512304
Salhuselva,67.805099,15.773792,7.275925
Saltdalelva,69.515225,19.25669,5.365183
Salvasskardelva,68.652366,18.897696,4.4646344
Sama,63.111583,10.601726,4.007522
Sarp,59.27644,11.133689,3.4319773
Saurdal,59.479142,6.692334,11.751594
Savalen,62.185692,10.611858,10.663988
Selselva,61.387342,5.61457,7.8989954
Sesselva,62.556419,7.161748,4.977307
Seterkraft,62.674848,8.430747,7.948231
Sevre,60.470494,9.22888,8.67106
Sigdestad,61.834199,5.664874,5.491206
Sildvik,68.397625,17.799681,13.939397
Siso,67.323103,15.722386,16.152775
Sjona,66.310342,13.563553,7.4845767
Sjøfossen,66.970862,14.146661,6.6937838
Sjønstå,67.19867,15.724273,12.7508335
Skagen,61.504615,7.706137,15.553329
Skarelva,68.183906,17.306387,4.3231015
Skarg,59.350378,7.295355,12.43251
Skibotn,69.312883,20.34206,8.978509
Skjefstadfoss I,60.826503,11.610549,2.9675367
Skjefstadfoss II,60.830494,11.611755,2.9892075
Skjenaldfossen,63.293668,9.728589,9.915001
Skjerdal,61.834041,5.974903,18.890165
Skjerka,58.557967,7.367182,9.269314
Skjomen,68.201085,17.36584,25.701029
Skjåk I,61.899278,8.227095,5.876597
Skoddeberg,68.625246,17.260847,7.2965803
Skogfoss,69.372953,29.694029,2.3137293
Skogheim,61.675014,5.783221,6.2950444
Skollenborg,59.621986,9.667983,5.13391
Skotfoss,59.207785,9.528109,7.0077896
Skravlåga,66.112053,13.53764,8.396863
Slind,63.192406,10.956678,6.331356
Slunkajavrre,67.807909,16.115713,8.456966
Smeland,58.669051,7.450992,11.690045
Smådøla,61.736211,8.936282,4.0083055
Småvatna,69.684261,22.154025,9.791372
Sokna,63.150398,10.317983,10.734516
Solbergfoss,59.636706,11.154443,6.2253733
Solbjørn,68.004201,13.161108,12.398496
Solhom,58.775692,7.012965,9.7586355
Songa,59.779587,7.728818,15.144397
Stakaldefoss,61.445797,6.009602,5.564254
Standal,62.261338,6.416543,9.901516
Stardalen,61.612472,6.548202,13.184658
Steinsfoss,58.300155,7.967539,9.149824
Steinsland,60.923999,5.98594,20.550817
Steinsvik,61.999557,5.854637,5.5458455
Stordal,60.960972,5.703188,4.051112
Storelva,60.977974,5.48821,12.322095
Storelvi,60.262074,6.624444,6.878903
Storlia,60.390513,7.391766,8.589764
Storlivatn,59.687516,6.521502,15.320834
Storåselva,64.279771,12.617346,4.8806596
Storåvatn 1,66.474322,13.396543,20.633787
Strandfossen,60.909193,11.525804,3.1407773
Straumsmo,68.73871,18.656695,9.0106535
Stølsdalselva,60.280322,6.289923,12.381609
Suldal I,59.651863,6.824512,16.00515
Suldal II,59.651863,6.824512,16.00515
Sundsbarm,59.498545,8.633632,6.488253
Sundsfjord,66.971196,14.157405,13.336931
Svandalsflona,59.850284,6.962739,12.420776
Svardøla,61.490419,6.983725,6.3905773
Svartdalen,60.790566,5.418863,25.0834
Svartelva,63.637554,10.132666,7.837199
Svartisen,66.724509,13.931344,20.285828
Svartkulp,59.729116,6.627519,7.9498
Svean,63.279212,10.472662,8.450089
Svelgen I,61.771111,5.297622,11.886625
Svelgen II,61.768853,5.304793,15.094947
Svelgen III,61.716662,5.236697,15.407569
Svelgen IV,61.768853,5.304793,15.094947
Svelgfoss,59.582112,9.256108,7.1332297
Svorka,63.038848,8.655876,8.797572
Svorkmo,63.178053,9.772572,7.593915
Sværen,61.281879,6.497773,9.271539
Sy-Sima,60.506968,7.140933,27.302294
Sylsjø,62.930266,12.151988,3.856097
Syversætre Foss,60.62985,12.030383,4.2117095
Såheim,59.87665,8.593622,18.6373
Sædalen,60.491297,5.771373,13.1604185
Søa,63.300242,9.136845,12.424795
Søberg,65.235725,12.657184,4.629407
Søkkunda,61.370997,11.098058,5.4758515
Sølna,62.116303,10.559259,4.0634074
Sønnå H,59.639933,6.379561,14.006375
Sønnå L,59.639933,6.379561,14.006375
Sørbrandal,62.166187,5.568515,10.529539
